이름,위도,경도,type,클러스터
종로2가사거리,37.56980554,126.9877523,bus,35
창경궁.서울대학교병원,37.57943293,126.9965206,bus,68
명륜3가.성대입구,37.58258001,126.9982508,bus,93
종로2가.삼일교,37.56857927,126.9876131,bus,35
혜화동로터리.여운형활동터,37.586243,127.001744,bus,93
서대문역사거리,37.566137,126.966893,bus,57
서울역사박물관.경희궁앞,37.569135,126.97038,bus,57
서울역사박물관.경희궁앞,37.56951198,126.970759,bus,57
광화문역,37.57014168,126.9763534,bus,35
광화문역,37.57023966,126.9778803,bus,35
종로1가,37.57014825,126.9810661,bus,35
종로1가,37.57027101,126.9816283,bus,35
종로2가,37.57017238,126.9849903,bus,35
종로2가,37.57023789,126.9865354,bus,35
종로3가.탑골공원,37.57020889,126.9893256,bus,68
종로3가.탑골공원,37.57036054,126.9899878,bus,68
종로4가.종묘,37.570507,126.9947219,bus,68
종로4가.종묘,37.570635,126.9953957,bus,68
종로5가.광장시장,37.570786,126.9990605,bus,68
종로5가.광장시장,37.57093017,126.9996038,bus,68
종로6가.동대문종합시장,37.57101117,127.0044628,bus,68
종로6가.동대문종합시장,37.57112723,127.0057137,bus,68
동대문역.흥인지문,37.57244754,127.0138159,bus,72
동대문역.흥인지문,37.57210531,127.0124518,bus,72
동묘앞,37.57383216,127.0186103,bus,72
동묘앞,37.57424646,127.0195528,bus,72
경기상고,37.58755022,126.9693635,bus,35
신교동,37.58329552,126.9702627,bus,35
경기상고,37.58719079,126.9697701,bus,35
경복고교,37.58516003,126.9708802,bus,35
청운중학교,37.58781058,126.9726741,bus,35
자하문고개.윤동주문학관,37.59218662,126.9671262,bus,79
자하문고개.윤동주문학관,37.59233532,126.9671907,bus,79
청운중학교,37.58842196,126.9722631,bus,35
경복고교,37.5850633,126.9714039,bus,35
통인시장종로구보건소,37.5803257,126.97105,bus,35
통인시장종로구보건소,37.58051321,126.9713851,bus,35
효자동,37.58309104,126.970621,bus,35
사직단.어린이도서관,37.57513553,126.9679907,bus,57
경복궁역1번출구,37.57616149,126.9714158,bus,35
경복궁역2번출구,37.57704014,126.9721994,bus,35
경복궁역3번출구,37.57767139,126.9722829,bus,35
경복궁,37.57557679,126.9787471,bus,35
광화문역2번출구.KT광화문지사,37.57232093,126.9774163,bus,35
영추문,37.57893039,126.9739818,bus,35
광화문역6번출구,37.57004483,126.9764072,bus,35
서울역사박물관.강북삼성병원,37.570023,126.971248,bus,57
새문안교회,37.57033689,126.9728386,bus,57
광화문역7번출구,37.570365,126.975837,bus,35
세종문화회관,37.57364893,126.9769976,bus,35
서울경찰청.경복궁역,37.57574466,126.9714843,bus,35
사직단,37.57485535,126.968189,bus,57
광화문역6번출구.광화문빌딩,37.56950355,126.9768637,bus,35
덕성여중고,37.57576939,126.9819722,bus,35
안국역.서울공예박물관,37.57606956,126.9839958,bus,35
국민은행세검정지점,37.60466298,126.960888,bus,79
세검정초등학교,37.60250228,126.9612198,bus,79
세검정.상명대,37.60047709,126.9582921,bus,79
상명대입구.석파랑,37.59941335,126.9585702,bus,79
하림각,37.59813307,126.9617068,bus,79
자하문터널입구.석파정,37.59559351,126.9636435,bus,79
부암동주민센터.무계원,37.59276708,126.9642222,bus,79
부암동주민센터.무계원,37.59278617,126.9651419,bus,79
자하문터널입구.석파정,37.59555757,126.9639776,bus,79
하림각,37.59814765,126.9622153,bus,79
상명대입구.세검정교회,37.59961633,126.9592406,bus,79
세검정.상명대,37.6006471,126.9591558,bus,79
세검정초등학교,37.60226807,126.9614329,bus,79
국민은행세검정지점,37.60484616,126.9611927,bus,79
승가사입구,37.61158441,126.956306,bus,79
구기동현대빌라,37.6100355,126.9564576,bus,79
구기터널.삼성출판박물관,37.60860989,126.9562103,bus,79
구기터널.삼성출판박물관,37.6083054,126.9564167,bus,79
구기동,37.60696445,126.9585298,bus,79
구기동,37.6070088,126.9591017,bus,79
승가사입구,37.61148,126.956482,bus,79
갑을씨티텔앞,37.60437097,126.963535,bus,79
평창파출소,37.60532237,126.9660433,bus,79
평창동주민센터,37.60660737,126.9695663,bus,79
일성아파트,37.60887236,126.9729237,bus,79
롯데아파트,37.61038972,126.9763156,bus,79
롯데아파트,37.610248,126.976652,bus,79
벽산평창힐스아파트,37.60819,126.972797,bus,79
예능교회,37.606517,126.97,bus,79
서울예술고등학교.평창동주민센터,37.60577876,126.9676276,bus,79
화정박물관,37.60450382,126.9648103,bus,79
강북삼성병원.경교장,37.56814593,126.9686005,bus,57
독립문역.서대문형무소역사관,37.573395,126.959322,bus,57
금화초등학교.서울시교육청,37.56825381,126.9645273,bus,57
서대문역사거리.적십자병원,37.56710815,126.9675878,bus,57
독립문,37.57134302,126.9614303,bus,57
창덕궁.서울돈화문국악당,37.57754057,126.9885394,bus,35
서린동.SK서린빌딩,37.5692639,126.9800948,bus,35
청계1가.광교,37.56868439,126.9849267,bus,35
청계2가.수표교,37.56844532,126.9908172,bus,68
청계4가.세운교,37.5689254,126.9965617,bus,68
청계5가.광장시장,37.56945128,126.9997974,bus,68
원남동,37.57453251,126.9973383,bus,68
창덕궁.우리소리박물관,37.57727265,126.9889539,bus,35
안국역6번출구.인사동,37.57579898,126.9841344,bus,35
조계사.종로경찰서,37.57252231,126.9831556,bus,35
조계사.종로경찰서,37.57248581,126.9828259,bus,35
안국동,37.57461057,126.9827201,bus,35
효제동.김상옥의거터,37.5745,127.00223,bus,68
종로5가.효제초등학교,37.57287901,127.0021442,bus,68
창덕궁.돈화문국악당,37.57743277,126.991235,bus,35
종로5가역6번출구,37.5705596,127.0021827,bus,68
청계5가.마전교,37.56983511,127.0028494,bus,68
동대문,37.57172624,127.0084126,bus,68
충신동,37.57402235,127.0062788,bus,68
충신동,37.57446028,127.0063434,bus,68
현대그룹빌딩,37.57591041,127.0008066,bus,68
방송통신대.이화장,37.578043,127.002437,bus,68
혜화역2번출구.마로니에공원,37.58111949,127.0022769,bus,93
혜화역3번출구.서울대병원입구,37.58095597,127.0018482,bus,93
방송통신대.이화장,37.57778897,127.0019783,bus,68
이화동(이화장),37.57611936,127.0006951,bus,68
창경궁.서울대학교병원,37.57882799,126.9968717,bus,68
이화동(이화장),37.57593729,127.0032708,bus,68
혜화동로터리,37.58558033,127.0006878,bus,93
명륜동2가.성균관대입구,37.58341708,126.9993413,bus,93
혜화역.서울연극센터(장면총리가옥),37.58403069,127.0014609,bus,93
혜화역.동성중고(장면총리가옥),37.58453294,127.0015562,bus,93
종로구민회관.창신동두산아파트,37.57409268,127.0155555,bus,72
동묘앞역6번출구,37.57168496,127.0156014,bus,72
동묘앞역5번출구,37.57192215,127.015945,bus,72
청계2가교차로,37.5684809,126.9878779,bus,68
창신3동주민센터,37.578413,127.015178,bus,41
숭인1동주민센터.창신역4번출구,37.57862816,127.0154558,bus,41
동묘앞역.롯데캐슬천지인,37.57418005,127.0158024,bus,72
신설동로터리,37.57569473,127.0228414,bus,72
동묘앞역2번출구,37.57364311,127.0175235,bus,72
구기동현대빌라,37.609682,126.956622,bus,79
광장시장,37.56949631,126.9977438,bus,68
혜화경찰서,37.57258074,126.9974788,bus,68
서울역사박물관,37.56990034,126.9721318,bus,57
청계3가.관수교,37.56868879,126.9937794,bus,68
청계6가.버들다리,37.56993039,127.0080377,bus,68
청계7가.맑은내다리,37.57004196,127.0130967,bus,72
청계8가.영도교,37.57089499,127.0181256,bus,72
원남동사거리,37.57576174,126.9981123,bus,68
숭인동,37.57427215,127.0204373,bus,72
조계사,37.57280034,126.9831609,bus,35
세종문화회관,37.57336557,126.9770167,bus,35
이화동(이화장),37.576257,127.002955,bus,68
상명대정문,37.601417,126.955143,bus,79
이북오도청,37.61272348,126.955973,bus,79
경복궁역(효자로입구),37.5767095,126.9743023,bus,35
상명대입구.세검정교회,37.59944351,126.9597922,bus,79
상명대입구.석파랑,37.59957181,126.9581941,bus,79
종로중부새마을금고,37.57241749,127.0065911,bus,68
신설동로터리.신한은행앞.서울풍물시장,37.57425481,127.0231951,bus,72
청계2가.삼일교,37.56834543,126.9869891,bus,35
청계8가.황학교,37.57213073,127.022787,bus,72
평창동삼성아파트,37.61118009,126.9787981,bus,79
안국역.인사동,37.57633293,126.9855365,bus,35
안국역.서울공예박물관,37.57641401,126.9848871,bus,35
창덕궁,37.57722809,126.9890031,bus,35
남인사마당,37.57131917,126.9874286,bus,35
평창파출소,37.60568122,126.9668167,bus,79
삼청공원,37.58822768,126.9816469,bus,35
수성동계곡,37.58208138,126.9644679,bus,57
명륜3가종점,37.59094838,126.9928637,bus,93
명륜새마을금고,37.58778547,126.9967901,bus,93
서대문역3번출구,37.56633706,126.9663939,bus,57
낙산공원,37.58040372,127.0087216,bus,41
인사미술공간.세탁소,37.58141098,126.9893671,bus,35
화정박물관,37.6048012,126.9648837,bus,79
금융연수원,37.58663983,126.9816583,bus,35
박노수미술관,37.58099674,126.9666035,bus,57
샘미용실.종로구청소년상담복지센터,37.59030953,126.9932227,bus,93
서울국제고등학교,37.58907159,126.9972903,bus,93
화정박물관,37.60498061,126.9652008,bus,79
적십자병원후문앞,37.56752954,126.9652273,bus,57
서울성곽.성대후문,37.58936638,126.9895694,bus,93
빨래터.고희동미술관,37.58298722,126.9890634,bus,35
세검초등학교,37.60425228,126.9614908,bus,79
삼청동주민센터,37.58426383,126.9819072,bus,35
통인시장,37.58044175,126.9684957,bus,35
양현관,37.58979142,126.9936044,bus,93
국민생활관,37.58974563,126.998862,bus,93
오거리,37.60706212,126.9622629,bus,79
경희궁자이2.3단지,37.56878711,126.9640686,bus,57
창신쌍용2단지.한성대후문,37.5812648,127.0127581,bus,41
통일부,37.58759481,126.9859477,bus,35
원서고개,37.58308055,126.9878088,bus,35
종로5가입구,37.57179285,126.9976709,bus,68
삼청파출소,37.58181366,126.981251,bus,35
오거리.한옥마을입구,37.57940462,126.9696089,bus,35
명륜시장.성대후문,37.58851105,126.9952543,bus,93
혜화초등학교,37.58725323,126.9998517,bus,93
청련사입구,37.60798038,126.9624312,bus,79
영천시장,37.57008186,126.9627389,bus,57
명신초.삼선푸르지오.힐스테이트,37.58210621,127.0145563,bus,41
감사원,37.58621065,126.9852901,bus,35
중앙중고,37.58309218,126.9869653,bus,35
인왕빌딩,37.60792833,126.9577443,bus,79
종로4가.종묘공원,37.57068903,126.9946203,bus,68
국립민속박물관,37.57925518,126.9795534,bus,35
광화문새마을금고,37.57936877,126.9711466,bus,35
새마을금고,37.58773706,126.9965181,bus,93
혜화우체국,37.58603766,127.0006137,bus,93
언덕앞,37.60895398,126.9637922,bus,79
경희궁자이4단지,37.57070222,126.9621148,bus,57
종로센트레빌후문.e편한세상보문아파트,37.58177439,127.0161855,bus,41
사우디대사관앞.경남빌라,37.58410567,126.9850312,bus,35
안국선원.삼거리,37.58279098,126.9849941,bus,35
구기터널입구,37.60820461,126.9567769,bus,79
종로3가역9번출구,37.57108758,126.9920932,bus,68
경복궁,37.57695016,126.9793378,bus,35
소나무집,37.61127707,126.9641105,bus,79
독립문역3번출구,37.57287848,126.9597453,bus,57
청룡사.보문파크뷰자이아파트,37.58001895,127.0170071,bus,41
북촌한옥마을입구.정세권활동터,37.58159973,126.9849422,bus,35
종로1.2.3.4가동주민센터,37.57438371,126.9911314,bus,35
창덕궁,37.57608925,126.99062,bus,35
아름다운실버,37.61201006,126.9654637,bus,79
독립문초등학교,37.57386997,126.9606775,bus,57
종로센트레빌아파트,37.58035344,127.0156927,bus,41
가회동주민센터,37.57997294,126.9849543,bus,35
구기빌라,37.60626861,126.9579797,bus,79
원남로터리,37.57623737,126.9975115,bus,68
보현산신각,37.61348252,126.9657791,bus,79
린덴바움숲유치원,37.57466928,126.961804,bus,57
쌍용아파트입구.창신역,37.58051123,127.0149636,bus,41
아름다운가게.정독도서관,37.57894808,126.9851272,bus,35
산정빌라,37.60515199,126.9574922,bus,79
이화사거리,37.57650956,127.0020915,bus,68
박종화고택입구,37.61431026,126.9676873,bus,79
무악현대아파트후문,37.57633723,126.9619412,bus,57
헌법재판소.안국역,37.5773872,126.9858152,bus,35
청구빌라,37.60461026,126.956984,bus,79
서울대어린이병원응급실.갑상선센터,37.57811888,126.999503,bus,68
화인빌라,37.61293453,126.9685386,bus,79
넓은마당,37.57527281,126.962888,bus,57
창신초등학교,37.5769032,127.0153886,bus,41
수운회관,37.57521894,126.9866693,bus,35
상명대후문,37.60402558,126.9573354,bus,79
힐탑,37.61160556,126.9690206,bus,79
신학대학교총회본부,37.57397631,126.9634446,bus,57
낙원상가,37.57375637,126.9874149,bus,35
완성빌라,37.60340209,126.9575011,bus,79
서울대병원장례식장,37.5805554,126.997431,bus,93
혜화역1번출구,37.58347299,127.0017633,bus,93
감나무골공원,37.61240596,126.9699479,bus,79
한국사회과학자료원.이회영기념관,37.57366701,126.9641239,bus,57
동묘앞역8번출구,37.57269435,127.0142454,bus,72
종로2가.탑골공원,37.57057137,126.9875484,bus,35
경진빌라,37.60200372,126.9578304,bus,79
성대입구,37.58335331,126.9992849,bus,93
청와대,37.5829713,126.9737681,bus,35
춘추문,37.58312761,126.9796554,bus,35
경복궁.국립민속박물관,37.57941352,126.9795911,bus,35
효자로입구(가상),37.57628833,126.9744666,bus,35
EN갤러리,37.6134218,126.9706087,bus,79
유림회관앞,37.5858956,126.9969805,bus,93
성균관대정문,37.58495635,126.9966204,bus,93
600주년기념관,37.5873281,126.9939426,bus,93
성균관대운동장,37.587863,126.99237,bus,93
학생회관,37.58742039,126.9936746,bus,93
종로문화센터,37.57469356,126.9645321,bus,57
동대문역2번출구,37.57204945,127.0117218,bus,68
종각역YMCA,37.57039764,126.9850893,bus,35
서교빌라,37.60198906,126.9571554,bus,79
경복궁역,37.57707221,126.9724733,bus,35
성대입구,37.5832668,126.998853,bus,93
무애사,37.61390043,126.9718458,bus,79
단군성전앞,37.57556009,126.9653175,bus,57
동대문종합시장,37.57121613,127.004958,bus,68
상명초등학교,37.60092381,126.9567154,bus,79
법련사,37.57658798,126.9796651,bus,35
광화문새마을금고,37.57949309,126.9710277,bus,35
성균관대학교,37.584886,126.996646,bus,93
참샘골공원,37.6146097,126.9742525,bus,79
활터앞,37.57681261,126.9653294,bus,57
종로5가역.중부교육지원청,37.57141925,127.0020898,bus,68
인사동들머리.3.1독립선언터,37.57194702,126.983297,bus,35
정독도서관,37.58026054,126.9800805,bus,35
오거리.한옥마을입구,37.57946844,126.9697393,bus,35
평창공원지킴터입구,37.6163964,126.9757439,bus,79
창경궁.고궁호텔.메이플레이스호텔,37.57655816,126.9974492,bus,68
광화문,37.57033749,126.9755695,bus,35
종로1가,37.57037,126.980129,bus,35
종로2가,37.57008246,126.9864618,bus,35
종로3가역11번출구,37.5706349,126.9932082,bus,68
종로3가,37.57010243,126.9909932,bus,68
종로4가,37.57046926,126.9962507,bus,68
동대문종합시장종로6가,37.5708648,127.0032912,bus,68
종로도서관,37.57648423,126.9671252,bus,57
경복궁역,37.57617809,126.9715056,bus,35
경복궁역7번출구,37.57581917,126.971682,bus,35
안국역,37.57661375,126.9852296,bus,35
안국역,37.57631851,126.985506,bus,35
창덕궁,37.57752042,126.9889001,bus,35
성대입구,37.5832828,126.9992358,bus,93
종로사우나,37.57380111,126.9877504,bus,35
엄마분식,37.60124243,126.9557163,bus,79
삼청파출소,37.58164517,126.9813258,bus,35
통인시장.종로구보건소,37.58033503,126.9687505,bus,35
종로5가역.광장시장,37.57077247,127.000039,bus,68
평창동산림제3초소,37.61735605,126.9771031,bus,79
배화여중고,37.57677876,126.9676986,bus,57
대학로입구.이화사거리,37.57598417,127.0025802,bus,68
운현궁,37.57527161,126.9869814,bus,35
상명대입구,37.60002101,126.9569583,bus,79
삼청동주민센터,37.58468468,126.9822105,bus,35
박노수미술관,37.58102656,126.9668945,bus,57
김창열.윤명로화실,37.616305,126.9783685,bus,79
사직공원.경복궁역입구,37.57622069,126.9689039,bus,57
충신시장,37.57497665,127.0054049,bus,68
안국역2번출구앞,37.57717282,126.9861183,bus,35
금융연수원,37.58587767,126.9818479,bus,35
감람산기도원,37.61594393,126.979873,bus,79
카센터.터널앞,37.57409862,126.9658895,bus,57
재동초등학교,37.57879108,126.9853617,bus,35
삼청공원삼거리.옥호정터,37.58741852,126.9817445,bus,35
이화사거리,37.57532007,127.0022813,bus,68
연화정사,37.614649,126.9794938,bus,79
대신중고,37.57261781,126.9616893,bus,57
현대사거리,37.57924178,126.9866354,bus,35
교남동주민센터,37.57218198,126.9613278,bus,57
부암동주민센터.무계원,37.59293534,126.9637682,bus,79
형제봉입구,37.61286432,126.9816862,bus,79
교남동새마을금고,37.57149436,126.9623375,bus,57
창신초교,37.57603721,127.0157201,bus,72
가회동주민센터,37.57994265,126.9851294,bus,35
볼링장,37.57925544,126.9879589,bus,35
석파정.서울미술관,37.59476432,126.9637824,bus,79
지구촌교회,37.61310603,126.9792421,bus,79
월암공원,37.57122609,126.9646919,bus,57
숭인1동주민센터,37.577415,127.0155607,bus,41
북촌한옥마을입구.정세권활동터,37.58128077,126.9851687,bus,35
하림각,37.59768473,126.9629664,bus,79
보현빌라,37.61538226,126.9784206,bus,79
스위스대사관,37.57014132,126.9656961,bus,57
안국선원.삼거리,37.58274325,126.9852205,bus,35
세검정교회,37.59938802,126.9600292,bus,79
혜화동로터리,37.58591961,127.0010032,bus,93
김종영미술관,37.61326379,126.9781123,bus,79
서울시교육청,37.56938168,126.9666999,bus,57
창신쌍용1단지.종로센트레빌아파트,37.58032282,127.0155693,bus,41
사우디대사관.북촌힐스,37.58386331,126.9852486,bus,35
상명대입구,37.59985447,126.9574023,bus,79
혜화초등학교,37.58738929,126.9999909,bus,93
강북삼성병원,37.56853152,126.9683377,bus,57
청룡사.보문파크뷰자이아파트,37.57978465,127.0171509,bus,41
감사원,37.58626565,126.9855618,bus,35
국민생활관,37.5896276,126.9993138,bus,93
종로센트레빌후문.e편한세상보문아파트,37.58189784,127.0162354,bus,41
통일부,37.58753085,126.9861073,bus,35
서울국제고등학교,37.58907429,126.9971408,bus,93
성대후문.와룡공원,37.58915228,126.989734,bus,93
상명초등학교,37.60090493,126.9568174,bus,79
새마을금고,37.58784069,126.996569,bus,93
경진빌라,37.60186409,126.9579482,bus,79
명륜시장.성대후문,37.58872461,126.9952305,bus,93
완성빌라,37.60333997,126.9576665,bus,79
양현관,37.589768,126.9937686,bus,93
상명대후문,37.60407158,126.9574634,bus,79
샘미용실.종로구청소년상담복지센터,37.59025457,126.9934084,bus,93
산정빌라,37.60528358,126.9575782,bus,79
구기빌라,37.60613345,126.9579809,bus,79
마트앞,37.60669871,126.9587565,bus,79
국민은행.세검정지점,37.60495417,126.9608727,bus,79
혜화역4번출구,37.58350804,127.0015539,bus,93
방송통신대앞,37.57869736,127.0019927,bus,68
서울대치과대학,37.5774083,126.997801,bus,68
효제초교.연동교회.김마리아활동터,37.57364134,127.0022088,bus,68
성균관대학교,37.58846387,126.9900036,bus,93
서울대치과대학,37.57757273,126.9978632,bus,68
이화사거리,37.57694834,127.0020085,bus,68
서울대학교병원현관.암병원현관,37.57908728,126.9981632,bus,68
종각.공평유적전시관,37.57159379,126.9832427,bus,35
조계사,37.57360211,126.9831364,bus,35
동대문역JW메리어트동대문호텔,37.57063698,127.0092821,bus,68
대학로,37.58189612,127.0021204,bus,93
창경궁,37.57915963,126.9964163,bus,68
창덕궁,37.57753017,126.9901776,bus,35
인사동.북촌,37.57589502,126.9837978,bus,35
경복궁.국립민속박물관,37.57933918,126.9795487,bus,35
세종문화회관,37.57313885,126.976912,bus,35
통인시장,37.57911876,126.9713316,bus,35
세종문화회관,37.57315586,126.9770139,bus,35
종각역,37.56937996,126.9828944,bus,35
인사동.탑골공원,37.57011554,126.9888006,bus,68
종묘.세운상가,37.57037362,126.9934997,bus,68
광장시장,37.57075214,126.9996789,bus,68
동묘.숭인동도깨비시장,37.5734766,127.0180439,bus,72
서울풍물시장,37.57334003,127.0231781,bus,72
청와대,37.58268481,126.97376,bus,35
남대문세무서,37.56498481,126.9875299,bus,68
국가인권위.안중근활동터,37.56435047,126.9878515,bus,68
서울역버스환승센터,37.55514602,126.9722571,bus,14
서울역버스환승센터,37.55540298,126.9725925,bus,14
서울역버스환승센터,37.55538899,126.9727238,bus,14
서울역버스환승센터,37.55547941,126.9728548,bus,14
서울역버스환승센터.강우규의거터,37.55541416,126.9729403,bus,14
숭례문,37.55863886,126.9737784,bus,14
숭례문(가상),37.55979677,126.9743556,bus,14
서울시청,37.56613826,126.9806321,bus,14
만리동고개,37.55178706,126.9626582,bus,22
손기정체육공원입구,37.55444595,126.9662339,bus,14
서울의료보건고등학교.서울역서부,37.5558479,126.9689026,bus,14
서울역서부,37.55623764,126.9691514,bus,14
서울역서부,37.555855,126.969293,bus,14
중림동교차로,37.55838363,126.9691354,bus,14
종근당.충정로역,37.55964888,126.9645408,bus,22
한국경제신문사.서소문역사공원,37.56021115,126.967868,bus,14
한국경제신문사.서소문역사공원,37.56062347,126.9681135,bus,14
경찰청.동북아역사재단,37.56304949,126.9691267,bus,57
장충동써미트호텔,37.56227366,127.006675,bus,68
농협은행.유관순활동터,37.56490628,126.9677868,bus,57
염천교,37.55986963,126.9731141,bus,14
숭례문,37.55840106,126.9733579,bus,14
숭례문.한국일보,37.55877131,126.9737376,bus,14
후암삼거리,37.5534056,126.9759938,bus,14
숭례문,37.55876338,126.9743627,bus,14
숭례문,37.55841953,126.9740437,bus,14
숭례문,37.55800065,126.9736279,bus,14
남대문시장악세사리전문상가,37.5588724,126.9759977,bus,14
숭례문남산방향,37.55855816,126.9756721,bus,14
남대문시장.신세계앞,37.56119108,126.9800598,bus,14
북창동.남대문시장,37.56123,126.978282,bus,14
시청앞,37.56219717,126.9764437,bus,14
삼성본관앞,37.56205175,126.9759075,bus,14
시청서소문2청사,37.56276421,126.9761487,bus,14
시청서소문2청사,37.56319014,126.9746522,bus,14
시청.서소문청사,37.56352484,126.9749539,bus,14
광교,37.56810692,126.9828444,bus,35
서울신문사,37.56836329,126.9773647,bus,35
명동성당,37.56497416,126.9874194,bus,68
우리은행종로지점,37.56783904,126.9828659,bus,35
롯데백화점,37.56450698,126.982207,bus,14
해운센터.롯데영플라자,37.56289078,126.9815478,bus,14
롯데영프라자,37.562885,126.982008,bus,14
명동입구B,37.56442477,126.9823981,bus,14
신세계백화점,37.56112734,126.9814315,bus,14
남대문시장.회현역,37.55826752,126.9777651,bus,14
남대문시장.회현역,37.55849203,126.9784645,bus,14
남산3호터널,37.55831045,126.9827404,bus,14
남산3호터널.서울애니메이션센터,37.55952609,126.9826359,bus,14
명동역4번출구,37.56065785,126.9849158,bus,14
퇴계로2가.명동역5번출구,37.56093258,126.9843583,bus,14
퇴계로3가.한옥마을.한국의집,37.56125082,126.9917772,bus,68
퇴계로3가.한옥마을.한국의집,37.56090197,126.9924098,bus,68
충무로역2번출구.대한극장앞,37.56123759,126.9947285,bus,68
충무로역8번출구.대한극장앞,37.56203716,126.9964922,bus,68
초동,37.56334618,126.993112,bus,68
을지로입구.로얄호텔,37.56587574,126.9853903,bus,14
을지로입구.시청입구,37.56613826,126.9811712,bus,14
을지로2가.기업은행본점.서울노동청,37.56624623,126.9865234,bus,68
을지로2가.파인에비뉴,37.56607271,126.9886708,bus,68
을지로3가,37.56637298,126.99026,bus,68
을지로3가,37.56612052,126.9913276,bus,68
을지로4가,37.56668416,126.9959336,bus,68
을지로4가.베스트웨스턴국도,37.56640104,126.9968473,bus,68
중구청앞.덕수중학교,37.5647746,126.9981401,bus,68
방산시장.을지로4가역6번출구,37.56681829,126.9992585,bus,68
을지로5가.중부시장,37.56662004,127.001115,bus,68
방산시장.훈련원종합체육관,37.56796085,127.0024045,bus,68
을지로5가,37.56582435,127.0025946,bus,68
을지로6가.국립중앙의료원,37.56616983,127.0062316,bus,68
광희동,37.56505283,127.0072097,bus,68
광희동,37.56517255,127.0077223,bus,68
을지로6가.국립중앙의료원,37.56646311,127.0058435,bus,68
동대문역사문화공원,37.56735414,127.0083555,bus,68
동대문역사문화공원,37.5674835,127.0091685,bus,68
충무아트센터.스포츠센터.중부소방서,37.56516753,127.0135231,bus,72
충무아트센터.스포츠센터.중부소방서,37.56501789,127.0147409,bus,72
성동공업고등학교(무궁화회관),37.56834819,127.0157558,bus,72
성동공업고등학교앞,37.56869506,127.0161295,bus,72
신당역1번출구.서울중앙시장,37.56572828,127.0187427,bus,72
신당역4번출구.서울중앙시장,37.56549207,127.0194795,bus,72
성동고등학교,37.56559419,127.0221822,bus,72
성동고등학교,37.56524109,127.0223979,bus,72
신당동떡볶이타운.중구여성플라자,37.56279546,127.015096,bus,72
신당동떡볶이타운.중구여성플라자,37.56231004,127.0151909,bus,72
청구초등학교.청구역,37.5589483,127.0132161,bus,1
장충초등학교.청구역,37.5592574,127.0130317,bus,1
약수역2번출구.가온도서관,37.55579291,127.0110429,bus,1
약수역3번출구.약수하이츠,37.55574961,127.0113797,bus,1
약수역4번출구.금호터널입구,37.553399,127.012012,bus,1
약수역5번출구.금호터널입구,37.55292373,127.0118693,bus,1
약수역8번출구.신당사회복지관,37.55386465,127.0099567,bus,1
약수역7번출구.약수동주민센터,37.55285097,127.0092978,bus,1
송도병원앞,37.55026765,127.0077187,bus,1
송도병원앞,37.55022712,127.0073984,bus,1
약수역1번출구,37.55625253,127.0097556,bus,1
장충체육관앞,37.55833622,127.0080611,bus,1
장충체육관앞,37.55800173,127.0078282,bus,1
장충동.동국대입구,37.56062132,127.0059098,bus,68
장충동.동국대입구,37.56066639,127.0056291,bus,68
퇴계로6가,37.56340113,127.0039011,bus,68
퇴계로6가,37.56352844,127.0033758,bus,68
퇴계로5가.충무초등학교,37.56238041,126.999966,bus,68
퇴계로5가.중구청,37.56278042,126.9997252,bus,68
국립극장.반얀트리호텔,37.55148182,127.0010947,bus,1
국립극장.반얀트리호텔,37.55153396,127.0007526,bus,1
청구역2번출구,37.55996006,127.0146561,bus,1
청구역3번출구,37.55993038,127.0142192,bus,1
동화동,37.56002447,127.0181258,bus,1
동화동,37.55981268,127.0182737,bus,1
백범광장,37.555737,126.980093,bus,14
남대문경찰서,37.55412819,126.9738404,bus,14
남대문시장앞.이회영활동터,37.56093942,126.9785804,bus,14
남산케이블카.남산산책로입구,37.55526518,126.9839798,bus,14
동대입구역.장충동,37.558362,127.005445,bus,68
약수역10번출구,37.556256,127.009322,bus,1
청계1가.광교,37.56857079,126.9833922,bus,35
청계2가.삼일교,37.56784047,126.9885302,bus,68
청계4가.배오개다리,37.56848437,126.9971755,bus,68
청계5가.방산시장,37.56921496,127.0008266,bus,68
청계6가.평화시장,37.56944119,127.0043806,bus,68
청계7가.동평화.청평화시장,37.56951354,127.0138508,bus,72
청계8가.영도교,37.57072592,127.0189972,bus,72
신한은행본점,37.56119655,126.9755852,bus,14
퇴계로2가.명동역7번출구,37.560988,126.985336,bus,14
광희동.동대문역사문화공원역,37.56541133,127.0091092,bus,68
버티고개,37.54780415,127.0060242,bus,1
버티고개,37.54765049,127.0061899,bus,1
청계3가.관수교,37.56821346,126.9929651,bus,68
청계6가.오간수교,37.56948518,127.0090361,bus,68
충무로역.매일경제,37.56169057,126.9933889,bus,68
을지로입구역.광교,37.56764926,126.9825656,bus,35
신당파인힐하나유보라,37.56498098,127.024856,bus,72
명동입구,37.56472274,126.9824744,bus,14
남산북측순환로입구,37.55069862,126.9988218,bus,32
신당동삼성아파트.금호여중,37.5585545,127.0187299,bus,1
신당동대우푸르지오.금호여중,37.55780783,127.0192882,bus,1
황학동주민센터,37.56685562,127.0234024,bus,72
신당초등학교앞,37.56448134,127.0239173,bus,72
금호베스트빌.래미안하이베르,37.56164521,127.0240513,bus,72
금호베스트빌.래미안하이베르,37.56225445,127.0243472,bus,72
신당초등학교,37.56450284,127.0242404,bus,72
방산종합시장,37.56780587,127.0019301,bus,68
황학동롯데캐슬,37.57166017,127.022034,bus,72
광희문.광희동사거리,37.56454992,127.008611,bus,68
광희문.광희동사거리,37.56440161,127.0096779,bus,68
황학동롯데캐슬,37.57081975,127.0232959,bus,72
한국은행앞,37.56140811,126.97929,bus,14
서울기동대.광희초등학교,37.56792221,127.0144829,bus,72
동대문디자인플라자,37.56770075,127.0119962,bus,68
서대문역사거리.농협중앙회,37.56688486,126.9679803,bus,57
서울스퀘어앞,37.55534163,126.9732317,bus,14
북창동.남대문시장,37.56084629,126.9769187,bus,14
힐튼호텔,37.55636774,126.9765672,bus,14
힐튼호텔,37.55662674,126.9767113,bus,14
시청앞.덕수궁,37.56621228,126.9768356,bus,14
남대문세무서.국가인권위원회,37.56508396,126.9878661,bus,68
장충문화체육센터.권기옥활동터,37.5601745,127.0025921,bus,68
남산1호터널,37.55740518,126.9921666,bus,14
남산예장버스환승주차장,37.55974,126.989289,bus,14
약수역.3.6호선,37.55330466,127.0117056,bus,1
조선일보,37.56873398,126.9768831,bus,35
시청역,37.566031,126.97701,bus,14
서울역,37.55820126,126.9713291,bus,14
숭례문앞,37.56151644,126.9762361,bus,14
프레스센터,37.56739609,126.9773391,bus,35
신당역하나은행,37.56542311,127.0215879,bus,72
염천교,37.55979257,126.9711137,bus,14
한국경제신문사,37.56093341,126.9679526,bus,14
응봉근린공원.금호산,37.5535217,127.016919,bus,1
서울방송고등학교.남산타운아파트,37.54958602,127.0124098,bus,1
서울방송고등학교.남산타운아파트,37.54961194,127.0122784,bus,1
중구청소년센터.남산타운2상가,37.55165491,127.0127512,bus,1
중구청소년센터.남산타운2상가,37.55190274,127.0121656,bus,1
약수시장.남산타운동문,37.55173322,127.01085,bus,1
약수지구대,37.5528411,127.0119578,bus,1
남대문시장,37.56142846,126.9793973,bus,14
을지로입구역롯데호텔,37.56580472,126.9803053,bus,14
소공동웨스틴조선호텔,37.56451783,126.9796461,bus,14
서울광장,37.565352,126.978885,bus,14
광화문코리아나호텔,37.56840139,126.9769074,bus,35
서소문KAL빌딩,37.56333874,126.9743183,bus,14
동국대입구앰배서더호텔,37.55977171,127.0026102,bus,68
광화문,37.568799,126.9769068,bus,35
시청덕수궁,37.566254,126.976921,bus,14
바비엥스위트,37.56510899,126.9676373,bus,57
서울역,37.55781956,126.9728596,bus,14
명동역.세종호텔,37.56108601,126.9864493,bus,14
충무로역.호텔피제이,37.56171802,126.9955605,bus,68
남대문시장,37.56096738,126.9787309,bus,14
이비스엠버서더호텔,37.56435343,126.9823877,bus,14
프레이저플레이스,37.56284768,126.9692683,bus,57
서울역,37.55816,126.971336,bus,14
아카시아호텔.웨스턴코업레지던스,37.56655061,127.0034787,bus,68
을지로코업레지던스,37.56623336,127.0053975,bus,68
토요코인호텔.이비스버젯호텔,37.56459135,127.0089473,bus,68
약수역,37.55378896,127.0098978,bus,1
남산밀레니엄힐튼호텔,37.55546657,126.9759753,bus,14
서울역,37.5580158,126.9720457,bus,14
숭례문라마다&스위트호텔,37.56061096,126.9720685,bus,14
시청역더플라자호텔,37.5641562,126.9779059,bus,14
시청.서울신문사,37.56829932,126.9773647,bus,35
프레이저플레이스남대문,37.561376,126.9762666,bus,14
프레이저플레이스남대문,37.56106678,126.9755366,bus,14
동대문역사문화공원,37.56538519,127.0092451,bus,68
광희동더스프라지르서울동대문,37.56473333,127.0075553,bus,68
동대문디자인플라자DDP,37.56785291,127.0092138,bus,68
베이튼호텔,37.56499932,127.0026364,bus,68
광화문,37.56894357,126.9768853,bus,35
덕수궁,37.566106,126.976925,bus,14
남대문시장,37.56092315,126.9753967,bus,14
명동,37.56075833,126.9856195,bus,14
남산골한옥마을,37.56099506,126.9924384,bus,68
앰버서더호텔,37.5604635,127.0026254,bus,68
신라호텔,37.5583034,127.0054272,bus,68
동대문디자인플라자.동대문시장,37.5668754,127.0085549,bus,68
동대문디자인프라자,37.56776256,127.0091304,bus,68
방산.중부시장,37.56685688,126.9994423,bus,68
을지로3가,37.56653491,126.9923256,bus,68
을지로입구,37.56613096,126.9810013,bus,14
명동입구,37.56415262,126.9823016,bus,14
신당동중앙시장,37.56575532,127.0194166,bus,72
남산오르미,37.55819405,126.9831349,bus,14
한강대교북단.LG유플러스,37.52404994,126.963121,bus,77
한강대교북단.LG유플러스,37.52430606,126.9631848,bus,77
신용산역,37.527293,126.966207,bus,77
신용산역,37.52792049,126.9666192,bus,77
용산우체국,37.53149701,126.970235,bus,77
용산우체국,37.53205037,126.9705641,bus,77
삼각지역,37.53518014,126.9736858,bus,77
삼각지역,37.5359845,126.9741609,bus,77
숙대입구역,37.54329563,126.9725378,bus,77
숙대입구역,37.54375602,126.9722321,bus,77
갈월동,37.5509756,126.9722373,bus,14
갈월동,37.54953372,126.9717082,bus,14
남영역,37.54200692,126.9719272,bus,77
남영역,37.541823,126.972069,bus,77
신용산역3번출구,37.52888957,126.9673498,bus,77
서울드래곤시티,37.53215669,126.9630604,bus,77
용산역3번출구.용산차고지,37.53180791,126.9642146,bus,77
한강대교북단,37.52496899,126.9635707,bus,77
서계동,37.5524743,126.9693405,bus,14
서계동,37.5516705,126.969222,bus,14
청파동,37.54899162,126.970122,bus,14
청파시장,37.54867903,126.9698626,bus,14
숙대입구역.청파동주민센터,37.54538125,126.9707772,bus,77
숙대입구역.청파동주민센터,37.54548616,126.9704189,bus,77
남영역,37.540813,126.971032,bus,77
남영역,37.54057027,126.9706761,bus,77
용산전자상가17동,37.53377926,126.9660271,bus,77
용산전자상가19동,37.53351349,126.9657072,bus,77
용산전자상가10동,37.5332725,126.9619641,bus,77
용산전자상가12동,37.53305741,126.962169,bus,77
용산전자상가.전자랜드,37.53277906,126.9583252,bus,77
용산전자상가.전자랜드,37.53305612,126.9583364,bus,77
원효대교북단,37.53198537,126.956111,bus,77
용산경찰서,37.54050321,126.9691858,bus,77
용산경찰서,37.53999946,126.9690615,bus,77
용산꿈나무종합타운.원효로우체국,37.5386139,126.9669291,bus,77
용산e편한세상,37.53746206,126.9654678,bus,77
남정초등학교,37.53631875,126.9636632,bus,77
원효로2가,37.53623744,126.9629911,bus,77
원효로2가사거리,37.53493384,126.9610704,bus,77
원효로3가,37.53404076,126.9581798,bus,77
원효로3가,37.53379572,126.9583248,bus,77
용암초등학교입구.이태원주공아파트,37.54411594,126.9886646,bus,32
이태원동남산대림아파트.용산동아파트,37.53987437,126.98748,bus,32
용산한신아파트,37.53980547,126.9871086,bus,32
해방촌,37.53781774,126.9866091,bus,32
국군재정관리단,37.53731771,126.9868496,bus,32
용산구청,37.530303,126.991163,bus,32
용산구청,37.52940958,126.9911699,bus,32
한강중학교,37.52545875,126.9921715,bus,32
한강중학교앞,37.52450259,126.9924288,bus,32
서빙고역1번출구,37.52004642,126.9899502,bus,59
장충단로입구,37.545795,127.002202,bus,32
남산예술원,37.544437,127.00204,bus,32
서울중부기술교육원.블루스퀘어,37.54157768,127.0035398,bus,32
서울시중부기술교육원.블루스퀘어,37.5411749,127.0031776,bus,32
순천향대학병원,37.53644224,127.0057302,bus,32
순천향대학병원,37.5356114,127.0062994,bus,32
순천향대학병원,37.53579346,127.0054994,bus,32
순천향대학병원.한남오거리,37.53549068,127.005729,bus,32
한남오거리,37.53284782,127.0083126,bus,32
남산도서관.용산도서관,37.552282,126.980835,bus,14
남산도서관.용산도서관,37.55204425,126.981134,bus,14
후암약수터,37.54869,126.98432,bus,14
후암약수터,37.54839526,126.9841669,bus,14
보성여중고입구,37.54639685,126.98584,bus,14
보성여중고입구,37.54625985,126.9856318,bus,14
남산체육관,37.54270388,126.9927902,bus,32
남산체육관,37.54250475,126.992917,bus,32
하얏트호텔,37.54175355,126.9961358,bus,32
하얏트호텔,37.5408661,126.9974258,bus,32
용마루고개(서울자동차고등학교),37.54063689,126.9584647,bus,88
용마루고개.효창파크푸르지오아파트,37.54029991,126.958552,bus,77
효창공원앞역.이봉창역사울림관,37.53927197,126.9618971,bus,77
효창공원앞역.이봉창역사울림관,37.53882848,126.9626979,bus,77
용산꿈나무종합타운.보건분소,37.53842682,126.9649998,bus,77
용산꿈나무종합타운.보건분소,37.538295,126.964648,bus,77
원효로제1동주민센터,37.53766072,126.9669923,bus,77
전쟁기념관,37.53475867,126.9768578,bus,77
전쟁기념관,37.53465117,126.9753831,bus,77
녹사평역,37.53510696,126.9851183,bus,32
녹사평역,37.53475822,126.9853047,bus,32
용산구청.이태원시장,37.53438305,126.9904707,bus,32
용산구청.이태원시장,37.53411271,126.9900096,bus,32
이태원역1번출구.해밀턴호텔,37.534552,126.993043,bus,32
이태원역4번출구.해밀턴호텔,37.53435397,126.9934293,bus,32
이태원119안전센터,37.53479,126.996387,bus,32
이태원119안전센터,37.53460415,126.9971799,bus,32
한남동주민센터,37.53704589,127.0004667,bus,32
한남동주민센터,37.5367073,127.0006043,bus,32
한강진역.블루스퀘어,37.540805,127.001695,bus,32
한강진역.블루스퀘어,37.54092918,127.0020254,bus,32
서울역11번출구,37.55361688,126.9738944,bus,14
후암삼거리,37.55254084,126.9765772,bus,14
후암시장,37.55068919,126.9770645,bus,14
후암시장,37.54974673,126.9775446,bus,14
용산중고,37.54665979,126.9781856,bus,14
용산중고,37.547205,126.978225,bus,14
후암동종점,37.54669893,126.9809588,bus,14
용산중고,37.54574,126.977563,bus,14
남영동주민센터,37.54581261,126.9768703,bus,14
남영동주민센터,37.5453624,126.9750573,bus,14
남영우체국,37.54512412,126.9732354,bus,77
남영우체국,37.54536815,126.9734814,bus,77
한남시범아파트,37.53794297,127.0122608,bus,32
한남시범아파트,37.53770414,127.0126715,bus,32
한남동,37.5339127,127.0084446,bus,32
한남동,37.53375499,127.0087003,bus,32
이촌동동부센트레빌,37.52155954,126.9660096,bus,59
이촌동두산위브트레지움.한강대우아파트,37.52157348,126.9675283,bus,59
이촌1동충신교회앞,37.52128315,126.9684808,bus,59
이촌동한가람아파트.이촌역,37.5206563,126.9718843,bus,59
이촌동한강맨션.이촌역,37.52018049,126.9727098,bus,59
신용산초등학교,37.51984977,126.9745085,bus,59
신용산초등학교.중경고등학교,37.51907753,126.976248,bus,59
중경고등학교.이촌동강촌아파트,37.51891785,126.9775234,bus,59
이촌동점보아파트,37.5183828,126.9784409,bus,59
이촌동현대아파트,37.51853368,126.978712,bus,59
금강병원.반도아파트,37.51770433,126.9811234,bus,59
서빙고신동아아파트,37.51793695,126.9851054,bus,59
서빙고신동아아파트,37.51748597,126.9853714,bus,59
만리동고개,37.55167001,126.9628216,bus,22
손기정체육공원,37.55421533,126.966423,bus,14
숙대입구역,37.544479,126.970799,bus,77
남영역,37.54222024,126.9709245,bus,77
숙명여대도서관앞,37.54484687,126.9672217,bus,77
숙명여대도서관앞,37.54484124,126.9664465,bus,77
숙명여대정문,37.5449595,126.9641095,bus,77
숙명여대정문,37.54513077,126.9643097,bus,77
숙명여대후문.이봉창활동터,37.54608397,126.9632996,bus,77
효창공원후문,37.54679103,126.9625779,bus,77
한겨레신문사입구,37.54588062,126.9591929,bus,88
대한노인회중앙회,37.54378904,126.9576684,bus,88
효창운동장.효창동주민센터,37.54220952,126.9617671,bus,77
효창동주민센터.금양초등학교,37.54162396,126.9622337,bus,77
금양초등학교,37.54129925,126.9620007,bus,77
효창공원역,37.53878602,126.9610379,bus,77
도원삼성래미안아파트,37.5397768,126.9574339,bus,88
도원삼성래미안아파트,37.53962541,126.9572103,bus,88
중앙하이츠빌라앞,37.53801446,126.9600336,bus,77
중앙하이츠빌라앞,37.53797386,126.9598809,bus,77
용문시장,37.53634792,126.960968,bus,77
용문시장,37.5359792,126.9613596,bus,77
용산전자상가입구,37.53457017,126.9622225,bus,77
용산전자상가입구,37.53466112,126.9619447,bus,77
신용산지하차도,37.53283488,126.9636682,bus,77
신용산지하차도,37.53259,126.963882,bus,77
신용산역5번출구,37.53003386,126.9676785,bus,77
용산역,37.52886661,126.9658225,bus,77
용산푸르지오써밋,37.52757562,126.9647596,bus,77
용산푸르지오써밋,37.52723093,126.9645788,bus,77
용산역광장앞,37.528333,126.965617,bus,77
용산역사박물관.용산철도고등학교,37.52559728,126.966015,bus,77
용산역사박물관.용산철도고등학교,37.52530577,126.9671194,bus,77
용산세무서,37.52373184,126.969244,bus,59
용산세무서,37.52362139,126.9701544,bus,59
이촌역,37.52266892,126.9739086,bus,59
이촌역,37.52236347,126.9740269,bus,59
국립중앙박물관용산가족공원,37.52089801,126.9786512,bus,59
국립중앙박물관용산가족공원,37.52087549,126.9799562,bus,59
서빙고역교차로,37.520427,126.9899,bus,59
서빙고초등학교,37.52117112,126.9908894,bus,59
한강중학교,37.52511406,126.9913627,bus,32
금호베스트빌앞,37.52263626,126.9907182,bus,59
서빙고동,37.51980432,126.9934203,bus,59
서빙고동주민센터,37.520384,126.9948813,bus,59
동빙고동,37.52081836,126.9966907,bus,32
동빙고동,37.52126256,126.997039,bus,32
보광신동아아파트삼성리버빌아파트,37.524738,127.0020297,bus,32
보광동신동아아파트,37.52562379,127.0015149,bus,32
보광동주민센터,37.52645912,127.0005046,bus,32
기업은행보광동지점,37.52800885,126.9993071,bus,32
기업은행보광동지점,37.52818201,126.9988968,bus,32
한국폴리텍1대학,37.53019599,126.9967926,bus,32
한국폴리텍1대학,37.53052935,126.9965748,bus,32
이태원역.보광동입구,37.5334,126.994213,bus,32
이태원역.보광동입구,37.53382242,126.994227,bus,32
한남역.용산노인종합복지관,37.53122393,127.0067957,bus,32
한남역.용산노인종합복지관,37.53066879,127.0077699,bus,32
이촌119안전센터.성촌공원,37.53007998,126.9529475,bus,77
성촌공원.포르쉐센터용산,37.53017103,126.9546065,bus,77
성촌공원.포르쉐센터용산,37.52974742,126.9543511,bus,77
이촌2동주민센터,37.52773644,126.955064,bus,77
이촌2동주민센터,37.52770289,126.9548606,bus,77
이촌2동대림아파트.새남터성지,37.52617531,126.9563231,bus,77
이촌2동대림아파트.새남터성지,37.52602927,126.9561659,bus,77
서부이촌동입구,37.52386405,126.9594954,bus,77
이촌2동강변아파트,37.52344621,126.959781,bus,77
원효2동산호아파트후문,37.53226001,126.9500127,bus,88
청암동강변삼성아파트,37.53461443,126.9482435,bus,88
청암동강변삼성아파트,37.534015,126.949323,bus,88
원효2동산호아파트,37.53301777,126.9505416,bus,88
원효2동산호아파트,37.5331089,126.9508278,bus,88
원효로풍전아파트,37.53212865,126.9535225,bus,77
원효로풍전아파트,37.53236877,126.9545136,bus,77
원효풍전아파트,37.53274214,126.9559182,bus,77
원효2동주민센터,37.5344941,126.9513962,bus,88
산천동리버힐삼성아파트,37.53450034,126.9511923,bus,88
산천동,37.53532039,126.9536425,bus,88
산천동,37.53540813,126.9533822,bus,88
신창동세방아파트,37.53570832,126.9549576,bus,88
신창동세방아파트,37.53583005,126.9549471,bus,88
남이장군사당,37.53665907,126.9579938,bus,77
남이장군사당,37.53675446,126.9575932,bus,77
용문시장.용문동새마을금고,37.53707162,126.9595338,bus,77
용문시장.용문동새마을금고,37.53714921,126.9591968,bus,77
순천향병원입구,37.53263055,127.0067506,bus,32
남산서울타워,37.55101447,126.9911948,bus,14
청심경로당,37.53388792,126.9506907,bus,88
삼성테마트,37.53374669,126.9503849,bus,88
서빙고동금호베스트빌,37.52261379,126.990991,bus,59
한남동하이페리온,37.52784398,127.0055474,bus,32
서빙고역1번출구,37.52003451,126.9894855,bus,59
문배동이안아파트앞,37.53887,126.9710604,bus,77
갈월동.숙대입구역10번출구,37.54638586,126.9716592,bus,14
삼각지역11번출구,37.536204,126.974548,bus,77
숙대입구,37.54453055,126.9705229,bus,77
원효대교북단,37.53213836,126.9556103,bus,77
문배동이안아파트앞,37.5383645,126.9707995,bus,77
순천향병원입구,37.53269451,127.0069961,bus,32
숙명여대입구,37.54488446,126.9696435,bus,77
서빙고초등학교,37.52084129,126.99061,bus,59
한강대교스카이스위트,37.52133077,126.9608162,bus,59
한강대교전망카페,37.521236,126.9613435,bus,59
노들섬,37.51751618,126.9586052,bus,91
노들섬,37.51736384,126.9590377,bus,91
용암초등학교.이태원2동주민센터,37.544673,126.990733,bus,32
용암초등학교.이태원2동주민센터,37.54484967,126.9909321,bus,32
효창공원삼거리.윤봉길의사등묘역,37.54460709,126.9638369,bus,77
서울역공항철도15번출구,37.55307791,126.9688468,bus,14
용산꿈나무종합타운,37.53848693,126.9672403,bus,77
남산도서관,37.55234367,126.9818462,bus,14
하얏트호텔,37.54066038,126.9969933,bus,32
한신아파트,37.53898273,126.9866957,bus,32
순천향병원,37.5332488,127.0048157,bus,32
용암경로당입구,37.54059661,126.9869184,bus,32
한남오거리,37.53309011,127.0066567,bus,32
가야랑앞,37.54019528,126.9936041,bus,32
용암한신아파트,37.54207717,126.9874353,bus,32
효창공원후문,37.54706884,126.9608921,bus,88
디지텍고등학교앞,37.53980318,126.991626,bus,32
우리들가정의원,37.54323151,126.987795,bus,32
도원삼성래미안아파트101동앞,37.53906859,126.9562321,bus,88
성도약국,37.53945068,126.9895541,bus,32
남산교회입구,37.54467134,126.9866472,bus,32
신애교회,37.54551904,126.9584869,bus,88
시장,37.53892255,126.9885516,bus,32
해방촌오거리,37.54572995,126.9851475,bus,14
보광동주민센터,37.52614734,127.0000973,bus,32
대한노인회중앙회,37.54403681,126.9576287,bus,88
도원삼성래미안아파트101동앞,37.53902226,126.9562966,bus,88
신흥교회앞,37.54474572,126.9833868,bus,14
군인아파트,37.52600406,126.9963177,bus,32
원효사.백범김구기념관,37.54314017,126.9585663,bus,88
녹사평역,37.53501104,126.9858713,bus,32
큰빛의집앞,37.54454818,126.9819982,bus,14
몬드리안서울이태원,37.52853051,126.9926264,bus,32
도원삼성래미안아파트,37.53968795,126.9576859,bus,88
후암동종점,37.54670079,126.9813662,bus,14
용산구청,37.53031911,126.9914495,bus,32
용산고등학교,37.5461364,126.9795092,bus,14
외빈차고,37.53172938,126.9921712,bus,32
효창공원앞역.이봉창역사울림관,37.53967102,126.9614323,bus,77
갈월동사회복지회관,37.54539013,126.9740852,bus,14
청화아파트,37.53141679,126.9951323,bus,32
동작대로(가상),37.51590858,126.9829602,bus,59
용산경찰서,37.5410233,126.9698057,bus,77
숙대역7번출구,37.54347578,126.9722968,bus,77
보광동삼거리,37.53073299,126.9968251,bus,32
중앙하이츠빌라,37.53856833,126.9594786,bus,77
원효우체국,37.53896727,126.9673538,bus,77
보광초등학교,37.53134303,126.9967764,bus,32
용문동시장.새마을금고,37.5373483,126.9596343,bus,77
수미용실,37.5313728,126.9984023,bus,32
용문동주민센터,37.53814739,126.959119,bus,77
문배어린이공원,37.53693839,126.9697251,bus,77
문배어린이공원,37.53714312,126.96959,bus,77
영동김밥,37.53103579,127.0007739,bus,32
한강대교(가상),37.52172772,126.9606612,bus,59
도깨비시장,37.53085466,127.002246,bus,32
리버힐빌라앞,37.53172603,127.0008837,bus,32
신용산역,37.52991665,126.9674545,bus,77
보광교회,37.532273,126.9991864,bus,32
용산우체국,37.53137629,126.9703154,bus,77
숙대역5번출구,37.54403813,126.9725115,bus,77
이슬람사원,37.53298846,126.9979655,bus,32
삼각지역,37.53450655,126.9732731,bus,77
갈월동,37.54632411,126.9720931,bus,14
보광초등학교후문앞,37.53309022,126.995698,bus,32
반포대교(가상),37.5188785,126.9940056,bus,59
동자경로당,37.55028671,126.9741955,bus,14
이태원역앞,37.53418055,126.9957002,bus,32
녹사평역.용산구청,37.53513958,126.9871838,bus,32
후암시장,37.55006648,126.9768044,bus,14
후암동주민센터앞,37.54836448,126.9777058,bus,14
제일기획,37.53487086,126.9984396,bus,32
대성교회,37.53869997,126.988452,bus,32
용산고,37.54590833,126.9789525,bus,14
성도약국,37.53927766,126.9894308,bus,32
후암동종점,37.54650165,126.9813595,bus,14
디지텍고등학교앞,37.53971398,126.9918569,bus,32
큰빛의집앞,37.54448328,126.9819077,bus,14
가야랑앞,37.54008896,126.9937523,bus,32
신흥교회앞,37.54462317,126.9833879,bus,14
해방촌오거리,37.54570295,126.9853965,bus,14
남산교회입구,37.54455059,126.9866223,bus,32
우리들가정의원,37.54324231,126.9876592,bus,32
용암한신아파트,37.54238805,126.9874137,bus,32
용암경로당입구,37.54109853,126.9869602,bus,32
한신아파트,37.53898812,126.9865577,bus,32
갑을빌딩,37.54909587,126.9720388,bus,14
리버힐삼성아파트후문,37.53494624,126.9487208,bus,88
만리시장입구,37.5515678,126.9630413,bus,22
배문중고등학교,37.55037493,126.9636168,bus,22
청파초등학교,37.54858348,126.9633755,bus,22
동부이촌동,37.52013925,126.972673,bus,59
강촌APT,37.51910004,126.9761942,bus,59
남산그랜드하얏트호텔,37.53982597,126.9973679,bus,32
청파초등학교,37.54846998,126.9635057,bus,22
배문중고교,37.55038127,126.9637289,bus,22
만리시장입구,37.55177599,126.9631453,bus,22
청암자이아파트,37.53486723,126.9485683,bus,88
신동아APT,37.5175986,126.9853624,bus,59
한남동,37.53716,127.005237,bus,32
한남동,37.535854,127.005492,bus,32
신동아APT,37.51792209,126.9853035,bus,59
강촌APT,37.51890573,126.9773129,bus,59
동부이촌동,37.52067791,126.9718175,bus,59
이촌동두산위브트레지움,37.52149367,126.9659919,bus,59
이촌동두산위브트레지움,37.52152836,126.9675735,bus,59
이촌현대아파트.금강병원,37.51771874,126.9810408,bus,59
이촌현대아파트.금강병원,37.51850812,126.978748,bus,59
한남역,37.53120681,127.0067323,bus,32
도원삼성래미안아파트단지내,37.5381983,126.9553881,bus,88
IP부띠끄호텔,37.53488978,126.9984792,bus,32
IP부띠끄호텔,37.53516,126.998386,bus,32
한남동주민센터,37.53411538,127.0006053,bus,32
용산CJ나인파크,37.53587066,126.969553,bus,77
용산e편한세상,37.5344622,126.9672212,bus,77
이집트대사관.한남더힐아파트,37.53525687,127.0112747,bus,32
이집트대사관.한남더힐아파트,37.53624088,127.011431,bus,32
한남역,37.53058499,127.0077438,bus,32
한남동,37.53375693,127.0085732,bus,32
한남동,37.53396315,127.0085657,bus,32
필리핀대사관,37.54069996,126.9950933,bus,32
필리핀대사관,37.54057021,126.99516,bus,32
서울드래곤시티용산,37.532097,126.961552,bus,77
전쟁기념관,37.53840147,126.9734852,bus,77
용산역,37.52907676,126.9658972,bus,77
국립중앙박물관,37.52084762,126.9785496,bus,59
이태원,37.53433859,126.9904417,bus,32
남산서울타워,37.55114199,126.9909862,bus,14
하얏트호텔,37.54089188,126.9972013,bus,32
답십리역사거리,37.56544961,127.0543962,bus,96
청년회의소.서울새활용플라자,37.56203536,127.0604823,bus,96
장한평역,37.56118992,127.0660927,bus,96
상왕십리역,37.5643358,127.0290749,bus,72
상왕십리역,37.56469363,127.0286813,bus,72
왕십리센트라스아파트,37.565213,127.0248052,bus,72
왕십리교회,37.56663004,127.0236794,bus,72
뉴타운아파트,37.5648724,127.0269698,bus,72
청계벽산아파트.텐즈힐아파트,37.56885848,127.0303755,bus,72
청계벽산아파트.텐즈힐아파트,37.56795982,127.0300384,bus,72
왕십리도선동주민센터,37.56761644,127.0246447,bus,72
왕십리2동주민센터,37.56244961,127.0332626,bus,56
코스모타워.서울신용보증재단성동지점,37.56298226,127.0329029,bus,56
성동구청,37.56312659,127.0359164,bus,56
상왕십리역,37.56487166,127.0302446,bus,72
상왕십리역.센트라스아파트,37.56586011,127.0299768,bus,72
신금호역4번출구,37.55414281,127.0205311,bus,1
마장동주민센터,37.5673235,127.0445738,bus,87
마장역,37.56559873,127.0422829,bus,56
성동노인복지관,37.56493759,127.0415861,bus,56
마장축산물시장,37.57095053,127.0380207,bus,87
마장축산물시장,37.57025901,127.0375114,bus,87
도선사거리,37.56702082,127.036954,bus,72
도선사거리,37.56664878,127.0364846,bus,72
마장동금호아파트,37.56307133,127.041859,bus,56
마장동금호아파트,37.56215772,127.0415812,bus,56
한양대부속고등학교,37.5609241,127.0414132,bus,56
한양대부속고등학교,37.56038812,127.0411546,bus,56
한양대앞.한양시장,37.5585824,127.0409668,bus,56
한양대앞,37.55852546,127.0406535,bus,56
한양대정문,37.55638837,127.0431286,bus,56
한양대정문앞,37.5569939,127.0431384,bus,56
무학여고앞,37.557854,127.0342332,bus,56
무학여고,37.55789531,127.0338673,bus,56
왕십리역,37.55994731,127.036192,bus,56
왕십리역,37.56033656,127.0362669,bus,56
왕십리역,37.56072354,127.0346873,bus,56
행당1동주민센터.성동소방서,37.55826718,127.038404,bus,56
서울숲삼부아파트,37.55872308,127.0379493,bus,56
응봉동주민센터,37.55339896,127.0335008,bus,56
응봉동주민센터,37.55376121,127.0334387,bus,56
응봉사거리,37.55529188,127.034458,bus,56
응봉동현대아파트,37.54973246,127.0305745,bus,56
응봉동현대아파트,37.550222,127.0309,bus,56
대현산배수지공원입구,37.556474,127.0200357,bus,1
신금호역,37.55560517,127.0201176,bus,1
신금호역,37.55567687,127.0199214,bus,1
금호고등학교,37.55347807,127.0219551,bus,1
금호고등학교.금호자이1차아파트입구,37.55310773,127.0229329,bus,1
금호동벽산아파트,37.5511644,127.0256791,bus,1
래미안하이리버아파트,37.55145821,127.0254234,bus,1
금호사거리,37.54887914,127.0260631,bus,1
금호사거리,37.54946397,127.0259773,bus,1
금남시장앞.백범학원터,37.54808522,127.0218686,bus,1
금남시장앞.백범학원터,37.54828876,127.0224878,bus,1
금호역,37.54772837,127.016267,bus,1
금호역,37.54854771,127.0154795,bus,1
금옥초등학교앞,37.54696731,127.0198923,bus,1
금옥초등학교앞,37.5462572,127.0182356,bus,1
힐스테이트서울숲리버아파트,37.54788771,127.0270576,bus,1
삼성래미안아파트앞,37.54834987,127.0275127,bus,1
옥수삼성아파트.래미안옥수리버젠,37.54362049,127.0148476,bus,1
옥수삼성아파트.래미안옥수리버젠,37.54380343,127.0146552,bus,1
미타사입구,37.54485562,127.0168373,bus,1
래미안옥수리버젠.옥수중앙교회,37.54591558,127.0148446,bus,1
래미안옥수리버젠.옥수중앙교회,37.545782,127.014698,bus,1
옥수파크힐스아파트앞,37.54711609,127.0130389,bus,1
옥수파크힐스아파트앞,37.54702043,127.013016,bus,1
옥수동종점,37.54933748,127.0125833,bus,1
옥정중학교입구,37.54090407,127.0113027,bus,1
옥정중학교입구,37.54087707,127.0109995,bus,1
성수1가1동새마을금고,37.53822046,127.0495477,bus,31
성수1가새마을금고,37.5383307,127.0495105,bus,31
천주교성수동성당앞,37.53937047,127.0461394,bus,31
천주교성수동성당앞,37.53930553,127.046074,bus,31
뚝도아리수정수센터수도박물관,37.54097724,127.0442026,bus,31
뚝도아리수정수센터수도박물관,37.541407,127.04399,bus,31
서울숲역2번출구,37.54293173,127.0447086,bus,31
서울숲역3번출구,37.54306294,127.0444981,bus,31
성동구민종합체육센터,37.54607197,127.0448961,bus,56
성동구민종합체육센터,37.54649799,127.044534,bus,56
성수공고앞,37.53997243,127.050315,bus,31
성수공고앞,37.54003883,127.0507596,bus,31
경일초등학교입구,37.54108002,127.0463724,bus,31
경일초등학교입구,37.54137975,127.0460161,bus,31
성동교남단,37.54951636,127.0444566,bus,56
성동교남단,37.55050752,127.0439628,bus,56
상원,37.55143713,127.0460506,bus,56
상원,37.55174774,127.0466619,bus,56
영동대교북단,37.53694242,127.0607393,bus,31
경수중학교,37.53976026,127.0624289,bus,31
성수119안전센터,37.53734169,127.0601321,bus,31
성수119안전센터,37.537532,127.059997,bus,31
경수중학교,37.53816503,127.0570118,bus,31
경수중학교,37.53828654,127.0572982,bus,31
뚝도시장,37.53858661,127.0553996,bus,31
뚝도시장,37.53885073,127.0552588,bus,31
성원중성수동이마트앞,37.53909394,127.0534265,bus,31
성원중성수동이마트앞,37.539511,127.052845,bus,31
서울숲지구대앞,37.53786772,127.0523417,bus,31
서울숲지구대앞,37.53805092,127.0522589,bus,31
뚝도시장구길,37.537192,127.05527,bus,31
뚝도시장구길,37.53755207,127.0549268,bus,31
성수동진주타운,37.53661744,127.0574889,bus,31
성수동진주타운,37.53675909,127.0574923,bus,31
영동대교,37.536356,127.059982,bus,31
영동대교,37.53643821,127.0600656,bus,31
화양사거리,37.54727767,127.0666629,bus,31
성수사거리.성수초등학교,37.54282189,127.0641613,bus,31
서울효사랑병원,37.54126364,127.0632745,bus,31
성수2가3동주민센터,37.54962437,127.0553884,bus,31
제인병원,37.54935113,127.0568367,bus,31
성동세무서앞,37.54799468,127.0621854,bus,31
성동세무서,37.54823913,127.0643373,bus,31
송정동서울숲아이파크,37.55182548,127.0692473,bus,31
송정동건영아파트,37.555205,127.07115,bus,17
군자교남단,37.55753716,127.0724415,bus,17
신답역,37.57021108,127.0475026,bus,87
용답동로데오거리.답십리역,37.56570333,127.0539458,bus,96
서울교통공사.서울새활용플라자,37.5620495,127.0569134,bus,96
뚝섬서울숲,37.54461804,127.0366012,bus,56
뚝섬서울숲,37.54567186,127.0363946,bus,56
사근동하이츠아파트앞,37.56119842,127.048606,bus,56
사근동하이츠아파트앞,37.56130618,127.0486882,bus,56
사근동주민센터,37.56081442,127.0456489,bus,56
사근동주민센터,37.56093153,127.0457112,bus,56
사근고개,37.56116171,127.0445909,bus,56
사근고개,37.56125556,127.0445102,bus,56
한양지구대,37.56021435,127.0420211,bus,56
한양지구대,37.56024458,127.0419242,bus,56
사근동벽산아파트,37.5601892,127.0499269,bus,56
뚝섬역8번출구,37.54769283,127.0455095,bus,56
뚝섬역2번출구,37.547575,127.046846,bus,56
뚝섬역5번출구,37.54648034,127.0492754,bus,31
뚝섬역4번출구,37.54680019,127.0492756,bus,31
성수역1번출구,37.54541968,127.0538294,bus,31
SK테크노빌딩앞,37.545888,127.050228,bus,31
SK테크노빌딩앞,37.54576985,127.0500259,bus,31
경동초등학교입구,37.54377243,127.0494809,bus,31
경동초등학교입구,37.5433913,127.0492129,bus,31
경일초등학교앞,37.54076843,127.0482363,bus,31
경일초등학교앞,37.54091938,127.0481685,bus,31
한양여대앞,37.55951,127.0503,bus,56
도선고등학교.꽃재교회,37.56709321,127.0277828,bus,72
성수역4번출구,37.54478786,127.0545807,bus,31
리버하우스,37.55090026,127.0510061,bus,56
리버하우스,37.5512302,127.0506905,bus,56
성수사거리,37.542562,127.062352,bus,31
성수사거리,37.54279808,127.0623621,bus,31
성동제일새마을금고,37.5608116,127.0471033,bus,56
성동제일새마을금고,37.56088413,127.0473013,bus,56
청계9가.텐즈힐2단지 정문앞,37.57074945,127.0255654,bus,72
뚝섬서울숲,37.54345278,127.0375619,bus,56
서울숲1번출입구,37.54222306,127.0426959,bus,31
서울숲1번출입구,37.54197811,127.0429744,bus,31
용답휴식공원,37.56931211,127.0480538,bus,87
용답휴식공원,37.56955418,127.0479373,bus,87
성수2가3동주민센터,37.55042513,127.0542376,bus,31
극동그린아파트앞,37.54200084,127.0113917,bus,1
마장역,37.56634697,127.0430338,bus,56
행당신동아.행당푸르지오아파트,37.55614084,127.0340193,bus,56
숭신초등학교,37.56716762,127.0281959,bus,72
극동아파트,37.55809745,127.0239338,bus,1
풍림아파트,37.55914272,127.0239062,bus,1
벽산아파트,37.55560229,127.0256886,bus,1
대림아파트,37.55657383,127.024926,bus,1
행당역,37.5570009,127.0290983,bus,56
행당역,37.55707937,127.0287644,bus,56
무학여고,37.55839115,127.0330163,bus,56
극동그린아파트,37.54206463,127.011905,bus,1
성수동차고지,37.535793,127.055682,bus,31
제민약국,37.53659215,127.0585185,bus,31
왕십리자이.신당현대아파트,37.560847,127.02363,bus,72
왕십리자이.신당현대아파트,37.5611519,127.0241021,bus,72
제민약국,37.536507,127.058488,bus,31
우리은행화양동지점,37.54811642,127.0661377,bus,31
황학교.텐즈힐몰,37.57005175,127.0236037,bus,72
마장동주민센터,37.56706321,127.0446425,bus,87
왕십리광장.왕십리역7번출구,37.56112833,127.0368888,bus,56
왕십리광장.왕십리역4번출구,37.56136444,127.0371334,bus,56
한양대동문앞,37.55564329,127.049676,bus,56
왕십리도선동주민센터,37.56781696,127.0244127,bus,72
한양여대앞,37.55922439,127.0506193,bus,56
행당중학교,37.55378087,127.0430247,bus,56
살곶이체육공원앞,37.55635904,127.0510192,bus,56
송정동현대아이파크아파트,37.55218712,127.0686201,bus,31
극동아파트5동,37.54315954,127.011079,bus,1
대우아파트관리실,37.54621412,127.0199839,bus,1
신금호역,37.55459318,127.0204908,bus,1
옥수역,37.54148275,127.0168166,bus,1
송정동자치회관,37.55088549,127.0687628,bus,31
대우아파트후문,37.54693907,127.0216589,bus,1
금호1가동주민센터,37.55512902,127.0221955,bus,1
왕십리민자역사,37.56184269,127.0378535,bus,56
무쇠막,37.54527775,127.0246948,bus,1
송정어린이집,37.54900258,127.0677474,bus,31
대경생활과학고등학교,37.55597143,127.017537,bus,1
금북초등학교.e편한세상금호105동,37.55553782,127.0237361,bus,1
무학여고,37.55749161,127.0339124,bus,56
힐스테이트서울숲리버,37.54674459,127.0253856,bus,1
성수SKV1센터1동,37.54581693,127.0655812,bus,31
극동아파트상가,37.54291975,127.0121009,bus,1
금호4가동주민센터.대도빌딩,37.54805265,127.0225635,bus,1
화단삼거리,37.54841742,127.0198767,bus,1
금호어린이집,37.5567335,127.0186202,bus,1
논골.금호벽산아파트.성동공유센터,37.55553949,127.0253044,bus,1
행당서울숲푸르지오상가앞,37.55561737,127.0338927,bus,56
법학학술정보관,37.55704033,127.048575,bus,56
성수이비즈센터,37.5465774,127.0630584,bus,31
한남하이츠아파트,37.54005431,127.0115923,bus,1
금호사거리,37.54800159,127.0252691,bus,1
금호산입구,37.55672209,127.0195737,bus,1
한진아파트후문,37.5560183,127.0269971,bus,1
신동아아파트후문,37.55489468,127.0326937,bus,56
올림픽체육관맞은편,37.55693416,127.0492908,bus,56
경수중학교입구,37.54351104,127.0600883,bus,31
제일감리교회,37.54786612,127.0269037,bus,1
신금호역,37.55438062,127.0196369,bus,1
제3법학관,37.55623391,127.0486368,bus,56
행당서울숲푸르지오109동앞,37.55445344,127.0317164,bus,56
벽산아파트정문,37.5526575,127.0252792,bus,1
성수역2번출구,37.5442691,127.0576391,bus,31
옥수종합사회복지관,37.54088049,127.0128519,bus,1
응봉동현대아파트,37.54980253,127.0307682,bus,56
행당2동주민센터,37.5577376,127.0306538,bus,56
응봉경로당앞,37.55262793,127.0316422,bus,56
금호119안전센터,37.55418706,127.0247308,bus,1
경동초등학교입구,37.54589389,127.0511563,bus,31
옥수삼성아파트,37.54063526,127.0139485,bus,1
현대공업사앞,37.54995073,127.0325678,bus,56
두산상가후문.106동,37.5491854,127.0167387,bus,1
중앙병원,37.55196128,127.0193176,bus,1
무학중학교.무학여고,37.55821,127.0331283,bus,56
만물상회앞,37.55282727,127.0312234,bus,56
논골사거리,37.55531503,127.0248124,bus,1
응봉초등학교.대림아파트,37.55106784,127.0334307,bus,56
한신아파트,37.55075381,127.0192957,bus,1
올림픽체육관앞,37.55701511,127.0496304,bus,56
상봉노인정앞,37.55287394,127.0302832,bus,56
논골신협.대림아파트후문,37.55770298,127.0245744,bus,1
옥수삼성아파트,37.54075326,127.0143208,bus,1
응봉역.광희중,37.55204254,127.0344339,bus,56
우리은행.백범학원터,37.54800691,127.0211726,bus,1
금호공원,37.54967696,127.019575,bus,1
대현산체육관입구,37.5530799,127.0298542,bus,56
한양대학교경영대학,37.5570854,127.0485298,bus,56
지하철2호선성수역,37.54477028,127.0546618,bus,31
옥수종합사회복지관,37.54088675,127.0132276,bus,1
대우아파트입구,37.54598344,127.0191632,bus,1
원형화단,37.54859296,127.0194898,bus,1
성동구청,37.56413555,127.0364064,bus,56
금봉어린이집.또또와마트,37.55290619,127.0288091,bus,56
한양대병원후문,37.56000511,127.0419652,bus,56
경수중학교입구,37.54336298,127.0596206,bus,31
옥정중학교,37.54133299,127.0113322,bus,1
응봉사거리,37.55486744,127.0345427,bus,56
천은교회.성동청소년상담복지센터,37.55469568,127.0267907,bus,1
극동아파트상가,37.54291161,127.0123679,bus,1
무학여고,37.55771859,127.0342554,bus,56
한전입구,37.5662652,127.0351185,bus,72
논골입구.성동공유센터,37.55554964,127.0255716,bus,1
극동아파트7동,37.54361893,127.012754,bus,1
성동보건소,37.56649464,127.0331863,bus,72
행당역.대림아파트정문,37.55704966,127.0286716,bus,56
청계벽산아파트,37.56826244,127.0303705,bus,72
논골.e편한세상금호114동,37.55519162,127.0246041,bus,1
코스모타워,37.56279399,127.0332904,bus,56
화단앞,37.54862447,127.019654,bus,1
성동사회복지관.청계천박물관,37.57030347,127.0334778,bus,72
금호119안전센터,37.55426368,127.0245724,bus,1
왕약국,37.54834119,127.0655473,bus,31
상왕십리역,37.5647437,127.0302514,bus,72
금호공원,37.5496508,127.0197742,bus,1
성동구도시관리공단.서울시시설관리공단,37.57182891,127.0368612,bus,87
e편한세상금호117동,37.55265763,127.0246822,bus,1
왕십리자이.신당현대아파트,37.56084707,127.0236902,bus,72
중앙슈퍼,37.54951566,127.0665318,bus,31
한신아파트,37.5507583,127.0194078,bus,1
금호고등학교,37.55309839,127.023553,bus,1
극동.풍림아파트,37.55904489,127.023641,bus,1
GS25,37.55030467,127.0671618,bus,31
중앙병원앞,37.55212796,127.0194715,bus,1
도선동사거리,37.56676758,127.0365327,bus,72
논골신협.대림아파트후문,37.55751195,127.0245189,bus,1
송정동자치회관입구,37.5511351,127.0678257,bus,31
성동구청,37.56335405,127.036041,bus,56
논골사거리,37.55612602,127.0247742,bus,1
신금호역,37.55433559,127.0197856,bus,1
성동중앙교회.벽산아파트정문,37.55300672,127.0248775,bus,1
무학중학교.무학여고,37.55842262,127.0332891,bus,56
천은교회.성동청소년상담복지센터,37.55459194,127.0266661,bus,1
금호어린이집,37.556743,127.0182315,bus,1
행당2동주민센터,37.55782957,127.0304206,bus,56
금봉어린이집.또또와마트,37.55264238,127.0287944,bus,1
대경생활과학고등학교,37.55606875,127.0175178,bus,1
대현산체육관입구,37.55296294,127.0297135,bus,56
GS주유소,37.54681133,127.0251254,bus,1
대림아파트후문,37.5561715,127.0269327,bus,1
상봉노인정앞,37.55267311,127.0302182,bus,56
서울숲푸르지오아파트정문,37.54525619,127.0243938,bus,1
대림상가,37.55387828,127.0344662,bus,56
충북상회,37.5527923,127.0310094,bus,56
서울숲푸르지오아파트후문,37.5435444,127.0228036,bus,1
무학여고,37.5581244,127.0338768,bus,56
무학여고,37.55809952,127.0342446,bus,56
응봉사거리,37.5553019,127.0340902,bus,56
응봉사거리,37.55508011,127.0344919,bus,56
응봉역.광희중,37.55220114,127.0344034,bus,56
응봉경로당앞,37.55238843,127.031694,bus,56
금호초등학교,37.55268843,127.0194943,bus,1
응봉초등학교.대림아파트,37.5508021,127.033168,bus,56
행당서울숲푸르지오109동앞,37.55438612,127.0318012,bus,56
현대공업사앞,37.55010593,127.0324417,bus,56
신동아아파트후문,37.55468771,127.0328358,bus,56
신동아아파트,37.54976756,127.0300982,bus,1
행당서울숲푸르지오상가앞,37.55557299,127.0340187,bus,56
삼성래미안아파트,37.54837509,127.0275591,bus,1
금호사거리,37.5481765,127.0250613,bus,1
금남시장앞.백범학원터,37.54827449,127.021648,bus,1
왕십리광장.왕십리역7번출구,37.56104655,127.0365163,bus,56
두산상가후문.106동,37.54933842,127.0166851,bus,1
극동아파트7동,37.54372076,127.0126657,bus,1
두산아파트113동,37.5505885,127.0160758,bus,1
두산아파트109동,37.54988947,127.0166307,bus,1
극동아파트4동,37.54353164,127.0115883,bus,1
극동아파트4동,37.5435055,127.0116845,bus,1
두산아파트109동,37.54991499,127.016797,bus,1
두산아파트115동,37.55105588,127.0159607,bus,1
금호역,37.54854922,127.0169909,bus,1
금호역.두산상가경비실,37.54861301,127.0166208,bus,1
금호역,37.54842402,127.0164273,bus,1
금호역.3호선,37.54829423,127.0166253,bus,1
화단삼거리,37.54821898,127.0196278,bus,1
두산아파트113동,37.55078794,127.0162396,bus,1
벽산아파트501동앞,37.5548867,127.0254385,bus,1
벽산아파트505동앞,37.55440101,127.0262518,bus,1
벽산아파트111동앞,37.55306308,127.0267898,bus,1
벽산아파트206동앞,37.55215254,127.0272674,bus,1
벽산아파트202동앞,37.55149025,127.0273469,bus,1
벽산하이피아상가앞,37.55219616,127.0256433,bus,1
우리은행.백범학원터,37.54826595,127.0211246,bus,1
행당푸르지오아파트,37.55623906,127.0340035,bus,56
왕십리역,37.56105361,127.0369827,bus,56
옥정중학교,37.54124739,127.0113005,bus,1
옥정중학교,37.54097445,127.0109935,bus,1
옥수삼성아파트,37.54360878,127.0148091,bus,1
옥수삼성아파트,37.54379082,127.0146145,bus,1
금옥초등학교.금호대우아파트,37.54647457,127.0189291,bus,1
금옥초등학교.금호대우아파트,37.54658996,127.0186519,bus,1
금호사거리,37.54797844,127.0241853,bus,1
금호사거리,37.54817651,127.0250025,bus,1
금호삼성래미안,37.54787691,127.0269818,bus,1
금호삼성래미안,37.54836158,127.0275354,bus,1
응봉현대아파트,37.5497629,127.0307014,bus,56
응봉현대아파트,37.55013049,127.0309019,bus,56
응봉주민센터,37.55344401,127.0335212,bus,56
응봉주민센터,37.55399906,127.0336018,bus,56
래미안옥수리버젠아파트상가,37.54437279,127.015727,bus,1
옥수동주민센터.옥수동성당,37.54360617,127.0140192,bus,1
국민은행,37.54269716,127.0122219,bus,1
국민은행,37.5427782,127.0127561,bus,1
옥수동주민센터.옥수동성당,37.54323766,127.0136717,bus,1
삼성아파트정문,37.54382678,127.0152935,bus,1
성동노인종합복지관,37.56520977,127.0414403,bus,56
중앙하이츠아파트,37.56525269,127.0389001,bus,56
민자역사후문,37.56354928,127.0383643,bus,56
금호1가동주민센터,37.55472829,127.0208123,bus,1
금호정형외과,37.55408677,127.0204579,bus,1
금호고등학교앞,37.55297995,127.0233929,bus,1
벽산하이피아상가,37.55196713,127.0260018,bus,1
벽산노인정,37.55105871,127.0268505,bus,1
벽산아파트107동,37.55168754,127.0274313,bus,1
벽산아파트109동,37.55261144,127.0274448,bus,1
벽산아파트505동,37.55432168,127.0263706,bus,1
벽산아파트501동,37.5550079,127.0255888,bus,1
광희중학교.응봉역,37.55191103,127.0350585,bus,56
한신아파트후문,37.5537403,127.037073,bus,56
한신아파트정문,37.55483475,127.0353825,bus,56
민자역사후문,37.56308291,127.0386951,bus,56
중앙하이츠아파트,37.5650543,127.0384487,bus,56
삼성래미안아파트,37.56549402,127.0402756,bus,56
금북초등학교입구,37.55565589,127.0236162,bus,1
대현산배수지공원앞,37.55517771,127.0220575,bus,1
선영약국,37.56677218,127.0306172,bus,72
텐즈힐아파트101동.115동,37.56698243,127.0292796,bus,72
숭신초등학교.도선고등학교앞,37.56732969,127.0271676,bus,72
왕십리도선동주민센터,37.56770843,127.0259157,bus,72
텐즈힐아파트120동.213동앞,37.56912306,127.0260063,bus,72
왕십리중앙교회,37.57000156,127.0267072,bus,72
청계현대아파트,37.57016549,127.0430257,bus,87
청계장원아파트,37.56932918,127.0447486,bus,87
마장2교사거리,37.56797516,127.0454637,bus,87
마장2교사거리,37.56818275,127.0456033,bus,87
청계장원아파트,37.56934274,127.0448455,bus,87
옥수교회,37.54523715,127.016009,bus,1
텐즈힐아파트107동앞,37.56956858,127.0285145,bus,72
응봉동현대아파트,37.54986196,127.030938,bus,56
논골.대림아파트107동.금호동벽산아파트,37.5558964,127.0249544,bus,1
옥수역5.6번출구,37.54185375,127.0169984,bus,1
서울숲푸르지오아파트,37.5450151,127.0237433,bus,1
언더스탠드에비뉴,37.543572,127.042776,bus,56
성동구민체육센터,37.545138,127.044474,bus,56
경일중고등학교,37.542316,127.049131,bus,31
이마트.서울숲힐스테이트아파트,37.540121,127.052284,bus,31
서울숲코오롱디지털타워2차,37.541411,127.05399,bus,31
서울경찰청제6기동단,37.540076,127.054739,bus,31
한라시그마밸리앞,37.539647,127.05532,bus,31
성수역3번출구,37.543842,127.057061,bus,31
서울숲코오롱디지털타워2차,37.541461,127.053848,bus,31
이마트.서울숲힐스테이트아파트,37.540528,127.05257,bus,31
현대그린아파트,37.540523,127.049622,bus,31
성수역3번출구,37.54355983,127.0566907,bus,31
경일중고등학교,37.542503,127.04921,bus,31
한라시그마밸리,37.53990607,127.0551786,bus,31
서울경찰청제6기동단,37.54022816,127.0547712,bus,31
서울숲역,37.543869,127.045146,bus,31
성동구민종합체육센터,37.54527,127.044515,bus,56
서울숲2번출입구,37.543527,127.04255,bus,56
서울숲9번출입구,37.54363749,127.0375591,bus,56
옥수역4번출구,37.54181185,127.0176125,bus,1
성수대교북단교차로,37.54429585,127.035517,bus,56
마장역,37.56611408,127.0426522,bus,56
마장역,37.56564741,127.0423948,bus,56
옥정초등학교,37.54088924,127.0154196,bus,1
e편한세상금호109동,37.55348259,127.0218758,bus,1
왕십리KCC스위첸아파트,37.5603742,127.0268267,bus,72
금호베스트빌아파트노인정앞,37.56187332,127.0250695,bus,72
응봉역.광희중학교,37.55187861,127.0352979,bus,56
대림강변타운아파트A상가,37.55479017,127.0357172,bus,56
리버그린동아아파트정문,37.55349324,127.0375237,bus,56
서울숲리버뷰자이아파트제2주차장,37.55616527,127.0394073,bus,56
서울숲리버뷰자이아파트제2주차장,37.55572157,127.0392798,bus,56
서울숲리버뷰자이아파트제1주차장,37.55419708,127.038889,bus,56
왕십리로교차로,37.55771977,127.0389354,bus,56
왕십리로교차로,37.55776761,127.0391339,bus,56
리버그린동아아파트,37.55334439,127.0382721,bus,56
서울숲리버뷰자이아파트제1주차장,37.55450974,127.0392367,bus,56
왕십리역6-1번출구,37.56079238,127.037913,bus,56
행당동서울숲더샵,37.55780723,127.0397223,bus,56
행당동서울숲더샵,37.55800088,127.0399091,bus,56
서울숲공원,37.5420906,127.0425737,bus,31
성수역수제화거리,37.54515802,127.0546184,bus,31
한양대역,37.55686515,127.0432471,bus,56
한양대학교병원본관1층,37.55945987,127.0438016,bus,56
한양대학교병원본관1층,37.55945161,127.0435712,bus,56
한양대학교병원응급실,37.55981246,127.0445986,bus,56
한양대학교류마티스병원동관,37.55997012,127.0446524,bus,56
한양대학교백남학술정보관,37.55899635,127.0446277,bus,56
한양종합기술연구원.생활과학대학,37.55906038,127.0449123,bus,56
한양대학교생활과학대학,37.55680349,127.0465029,bus,56
한양대학교제2의학관,37.55933134,127.042131,bus,56
한양대학교정문,37.55777611,127.0421228,bus,56
군자교입구,37.55874099,127.0756461,bus,17
군자교입구,37.55879373,127.0749003,bus,17
군자역.용마초등학교,37.55609891,127.0824731,bus,17
군자역.용마초등학교,37.55626982,127.0815564,bus,17
중곡동입구삼거리,37.55449655,127.0865505,bus,17
어린이대공원후문아차산역,37.55120847,127.0901492,bus,94
어린이대공원후문아차산역,37.5527549,127.0892142,bus,94
중곡동입구삼거리,37.554926,127.085229,bus,17
새밭교회,37.54898341,127.0931845,bus,94
새밭교회,37.54895793,127.0926145,bus,94
광나루역,37.54574097,127.1026491,bus,94
광나루역,37.54515886,127.10376,bus,94
군자교,37.56153286,127.075203,bus,17
군자교,37.56238618,127.0752287,bus,17
메리놀외방선교회,37.55895087,127.077335,bus,17
메리놀외방선교회,37.55908662,127.0776319,bus,17
중곡1동주민센터입구,37.56052242,127.0783835,bus,17
중곡1동주민센터입구,37.5608783,127.0784037,bus,17
중곡1동사거리,37.56245368,127.0794725,bus,17
중곡1동사거리,37.56248135,127.0792818,bus,17
중마초등학교.중곡제일골목시장앞,37.56498069,127.0808444,bus,17
용마사거리,37.56229075,127.0818721,bus,17
중곡2동주민센터앞,37.55988373,127.0808553,bus,17
중곡2동주민센터앞,37.55984027,127.0811552,bus,17
중곡동성당앞,37.56316824,127.0829363,bus,17
종합의료복합단지,37.56388824,127.0833601,bus,17
대원여자고등학교앞,37.562118,127.087052,bus,17
중곡보건지소,37.55991949,127.0869846,bus,17
신성시장앞,37.55831636,127.0876755,bus,17
중곡우체국앞,37.56157731,127.0838853,bus,17
면곡시장,37.56974605,127.0797293,bus,17
면곡시장,37.57002722,127.0794405,bus,17
중곡아파트,37.56640123,127.0778997,bus,17
중곡아파트,37.56579555,127.077177,bus,17
중마초등학교.중곡제일골목시장앞,37.56523071,127.0808531,bus,17
중곡역입구,37.56634043,127.081615,bus,17
중곡역입구,37.56665978,127.0816482,bus,17
중곡3동주민센터앞,37.56853602,127.0827951,bus,17
중곡3동주민센터앞,37.56849153,127.0826419,bus,17
면곡시장앞,37.57079492,127.0832844,bus,17
면곡시장앞,37.57108313,127.0834488,bus,17
용암사입구,37.56791599,127.0860566,bus,17
용곡삼거리,37.56793345,127.0855902,bus,17
중곡역.국립정신건강센터,37.56604642,127.0845455,bus,17
대원고교앞,37.56396603,127.0867086,bus,17
용암사입구,37.567868,127.0863735,bus,17
대원고교앞,37.56419922,127.0869681,bus,17
대원여자고등학교앞,37.56269505,127.0873094,bus,17
신성시장,37.55831895,127.0879298,bus,17
중곡동입구,37.55419672,127.088669,bus,17
어린이대공원앞,37.55204586,127.0770315,bus,17
능동사거리.군자역6번출구,37.55517668,127.0786347,bus,17
구의사거리.광진소방서앞,37.54524957,127.0839777,bus,53
어린이회관,37.545612,127.079201,bus,53
구의사거리.광진소방서앞,37.54499866,127.0843024,bus,53
광진경찰서,37.54153366,127.0836883,bus,53
광진경찰서,37.54308737,127.0846474,bus,53
광진경찰서,37.54221011,127.0842427,bus,53
광진구청,37.53896485,127.0834074,bus,53
구의역2번출구,37.53770269,127.0879773,bus,53
래미안구의파크스위트,37.54471589,127.0890122,bus,94
구의2동주민센터입구,37.54925157,127.0897847,bus,94
구의2동주민센터입구,37.54864168,127.0895859,bus,94
구의사거리,37.54565109,127.085747,bus,53
구의사거리,37.54581736,127.0863481,bus,53
래미안구의파크스위트,37.54496382,127.0890507,bus,94
현대아파트앞,37.5395525,127.0940087,bus,53
현대아파트앞,37.53964377,127.0941743,bus,53
광진우체국,37.537998,127.090409,bus,53
강변역A,37.5361137,127.0937169,bus,53
테크노마트앞.강변역,37.53686451,127.093755,bus,53
구의현대2단지아파트,37.53785337,127.0965425,bus,53
올림픽대교북단사거리,37.5433927,127.09321,bus,94
올림픽대교북단사거리,37.54338872,127.0936876,bus,94
광장동현대아파트앞,37.54190911,127.0977641,bus,94
광장동현대아파트앞,37.54207254,127.0989722,bus,94
광나루역.극동아파트,37.5435355,127.1029629,bus,94
광나루역.극동아파트,37.54424248,127.1033203,bus,94
어린이대공원역2번출구,37.546984,127.075378,bus,53
워커힐아파트.광장동,37.54789575,127.106715,bus,94
워커힐아파트앞,37.55049601,127.1090264,bus,94
워커힐입구,37.55061343,127.1087232,bus,94
광진구청,37.53876278,127.0831892,bus,53
자양사거리,37.53693378,127.0824321,bus,53
자양사거리,37.5367503,127.0821045,bus,53
자양초등학교앞,37.53794785,127.0784674,bus,53
자양초등학교앞,37.53742286,127.0792651,bus,53
건국대학교앞,37.53874521,127.0750483,bus,53
자양미소약국.자양골목시장,37.53275,127.077319,bus,53
자양동우체국.중앙농협,37.53157272,127.0814131,bus,53
자양하늘채베르아파트앞,37.53219224,127.084608,bus,53
자양동잠실대교북단,37.53295532,127.0848057,bus,53
신자초등학교앞,37.53044032,127.0749155,bus,53
자양미소약국.자양골목시장,37.53270034,127.0768713,bus,53
자양동우체국.중앙농협,37.53153084,127.0807387,bus,53
동서울우편집중국앞,37.53505211,127.0843377,bus,53
자양하늘채베르아파트앞,37.53197322,127.0846733,bus,53
자양동잠실대교북단,37.53212015,127.0858514,bus,53
자양2동주민센터,37.527949,127.08517,bus,53
구립행복마루어린이집,37.527743,127.082213,bus,53
자양한강도서관,37.528429,127.078333,bus,53
구의역3번출구,37.53751863,127.0882894,bus,53
국민은행신자양지점,37.53557191,127.0668747,bus,31
신양초등학교앞,37.53491182,127.0692877,bus,31
신양초등학교앞,37.53523371,127.0689474,bus,31
뚝도변전소앞,37.536091,127.0689076,bus,31
광진문화예술회관,37.53856525,127.0701692,bus,31
건국대학교앞,37.53844611,127.0748754,bus,53
신자초등학교앞,37.530768,127.074922,bus,53
자양우성아파트앞,37.53379524,127.0734113,bus,53
자양우성아파트앞,37.53394696,127.0734067,bus,53
자양고교앞,37.53457909,127.0711714,bus,53
자양고교앞,37.53431586,127.0713601,bus,53
대동아파트앞,37.536419,127.068967,bus,31
국민은행신자양지점,37.53572933,127.0672016,bus,31
영동교골목시장,37.53950299,127.0626913,bus,31
건대입구역6번출구,37.54082688,127.0672789,bus,31
건대로데오거리입구,37.539081,127.070158,bus,31
노룬산시장앞,37.53680587,127.0629447,bus,31
영동대교북단,37.53671469,127.0611888,bus,31
노룬산시장앞,37.53660675,127.0628993,bus,31
신양초등학교앞,37.53380284,127.0679167,bus,31
자양4동주민센터앞,37.533632,127.067497,bus,31
성수사거리,37.54315851,127.0647766,bus,31
화양사거리,37.54723184,127.0670886,bus,31
광진광장,37.54771517,127.0715209,bus,31
어린이대공원역4번출구,37.54662164,127.0736285,bus,31
한아름공원,37.543765,127.072222,bus,31
건대입구역사거리.건대병원,37.548983,127.093185,bus,94
건대입구역1번출구,37.54089575,127.0681673,bus,31
어린이대공원역3번출구,37.54680458,127.0751469,bus,53
건대입구역사거리.건대병원,37.54081986,127.0712485,bus,31
어린이회관,37.54527222,127.0795953,bus,53
천주교화양동성당,37.54590439,127.0735882,bus,31
송정동서울숲아이파크,37.55170446,127.0695975,bus,31
송정동건영아파트,37.55475377,127.0712986,bus,17
군자교남단,37.55741097,127.0727879,bus,17
중앙농협군자지점,37.55770855,127.0767091,bus,17
중앙농협군자지점,37.55715628,127.0765591,bus,17
능동우편취급국,37.55616091,127.0760329,bus,17
군자삼거리,37.55497555,127.0752869,bus,17
군자삼거리,37.55464662,127.0753228,bus,17
세종초등학교.세종사이버대학교앞,37.55352488,127.0733967,bus,17
세종초교앞,37.55386665,127.0743618,bus,17
군자새마을금고.성동광진위센터,37.55185121,127.0713225,bus,31
군자새마을금고앞,37.55135665,127.0710878,bus,31
장안초등학교,37.54869231,127.0707548,bus,31
장안초등학교,37.54858017,127.0704836,bus,31
화양사거리,37.5483289,127.0686842,bus,31
광진광장,37.54800515,127.0715411,bus,31
어린이대공원앞.세종대학교,37.549752,127.07544,bus,17
능동교회앞,37.55287399,127.0769927,bus,17
능동사거리.군자역7번출구,37.556322,127.07882,bus,17
아차산역삼거리,37.55458123,127.086786,bus,17
용마초등학교,37.55654226,127.0817237,bus,17
어린이대공원후문,37.55086668,127.0905076,bus,94
서울화양동우체국,37.54811041,127.0687744,bus,31
중곡동입구,37.55479896,127.0882622,bus,17
제일은행사거리,37.53355053,127.0747506,bus,53
동곡삼거리,37.56367394,127.0779539,bus,17
건대병원입구,37.54210848,127.0714728,bus,31
광진청소년센터,37.54595149,127.1053745,bus,94
강변역B,37.53605415,127.0937384,bus,53
테크노마트앞.강변역,37.53690502,127.0938031,bus,53
중곡동성당,37.56276542,127.0824011,bus,17
종합의료복합단지,37.56437306,127.0833027,bus,17
중곡역.국립정신건강센터,37.5662295,127.084325,bus,17
용곡삼거리,37.5685783,127.0855998,bus,17
구의3동주민센터,37.53906841,127.0925471,bus,53
구의3동주민센터,37.53904849,127.0921001,bus,53
광진구민체육센터,37.54690811,127.1078575,bus,94
광나루우편취급국,37.54740233,127.1063093,bus,94
건대입구(가상),37.54019114,127.0709898,bus,31
중곡4동경로당입구앞,37.55913062,127.0939631,bus,17
중곡아파트.종점,37.56637898,127.0779156,bus,17
긴고랑종점,37.56219446,127.0960429,bus,17
정보도서관,37.55024867,127.1104622,bus,94
강원설비앞,37.55900294,127.0901359,bus,17
강원설비앞,37.55884901,127.0899354,bus,17
중앙상회앞,37.560159,127.0947975,bus,17
한강호텔입구,37.54845463,127.1094523,bus,94
중곡4동경로당입구앞,37.55919254,127.0942812,bus,17
중곡아파트.기점,37.56687684,127.0781638,bus,17
구.새마을금고앞,37.56144173,127.0871709,bus,17
CU중곡긴고랑점앞,37.558916,127.0930312,bus,17
광나루현대아파트,37.54672174,127.107587,bus,94
긴고랑주차장,37.56096064,127.0956309,bus,17
신성시장입구,37.55852697,127.0880097,bus,17
중곡4동어린이집입구,37.55868455,127.0917044,bus,17
신동아아파트,37.54635129,127.1053289,bus,94
마을금고.브레드제과점,37.55763396,127.0892469,bus,17
긴고랑입구,37.558877,127.0886688,bus,17
우리들약국,37.55690148,127.0902851,bus,17
광남고.삼성아파트,37.54194779,127.1014183,bus,94
해오름공원입구,37.55630792,127.0911231,bus,17
현대3차아파트,37.54046519,127.0996487,bus,94
기업은행.용마사거리,37.56244604,127.0814331,bus,17
기원정사입구,37.55488262,127.0931372,bus,94
송림식당앞,37.53682211,127.07663,bus,53
중곡우체국앞,37.56116374,127.0840578,bus,17
영화사입구,37.55422855,127.0941176,bus,94
군자역,37.55787481,127.0800823,bus,17
강변역.테크노마트앞,37.53639347,127.094859,bus,53
자양중학교앞,37.53469053,127.0759964,bus,53
성안약국,37.55321006,127.0932969,bus,94
지영슈퍼,37.55181874,127.0921939,bus,94
구의역,37.53823879,127.0892373,bus,53
국민은행자양지점,37.53198601,127.0792388,bus,53
아차산역사거리,37.55072155,127.0913081,bus,94
중곡보건지소,37.55953058,127.0870747,bus,17
썬더치킨앞,37.54155063,127.0900165,bus,53
영동대교입구.성수사거리,37.54282551,127.0645259,bus,31
선화예고앞,37.54948475,127.0900588,bus,94
긴고랑입구,37.55873643,127.0886687,bus,17
구의홈마트앞,37.54029022,127.089723,bus,53
화양동현대아파트,37.54398276,127.0652402,bus,31
성자초등학교앞,37.53130001,127.0822557,bus,53
한국켄트외국인학교,37.54772999,127.0880988,bus,94
중곡4동어린이집입구,37.55851698,127.0916679,bus,17
래미안구의파크스위트사거리,37.54404893,127.0906,bus,94
성수대우프레시아1차아파트,37.54529434,127.0659848,bus,31
CU중곡긴고랑점앞,37.55875923,127.0930028,bus,17
화양사거리SKV1센터,37.54625796,127.0664105,bus,31
행운슈퍼앞,37.53295012,127.0870099,bus,53
중앙상회앞,37.56015779,127.0949721,bus,17
한창주택,37.53361444,127.0891357,bus,53
광장중학교앞,37.54679033,127.1024015,bus,94
구의아크로리버앞,37.53529269,127.0921363,bus,53
구의역4번출구,37.53665431,127.0848371,bus,53
장신대앞,37.54753936,127.1052274,bus,94
강변역A,37.535988,127.093833,bus,53
워커힐아파트입구,37.54788634,127.1065941,bus,94
동서울호텔앞,37.5345921,127.092049,bus,53
워커힐아파트,37.55000352,127.1075883,bus,94
한창주택,37.53371538,127.0891188,bus,53
행운슈퍼앞,37.53306994,127.0870462,bus,53
워커힐아파트입구,37.54807986,127.1065164,bus,94
구의역1번출구,37.53692986,127.0847883,bus,53
장신대앞,37.54763045,127.1051324,bus,94
성자초등학교앞,37.53151966,127.0825683,bus,53
광장중학교앞,37.54694794,127.1024889,bus,94
광진경찰서앞,37.54234688,127.0843546,bus,53
한전삼거리,37.54544335,127.0979657,bus,94
자양동,37.5356142,127.0676371,bus,31
자양동,37.53563492,127.066848,bus,31
국민은행자양지점,37.53227793,127.07903,bus,53
청구아파트앞,37.5423896,127.0967938,bus,94
광장자이아파트,37.54225284,127.0949239,bus,94
서울서광교회앞,37.54758473,127.088351,bus,94
자양중학교앞,37.53463538,127.0762758,bus,53
래미안구의파크스위트사거리,37.54413013,127.0904643,bus,94
자양1파출소앞,37.53676516,127.0769071,bus,53
면곡시장,37.57146241,127.081375,bus,17
동곡삼거리,37.56380213,127.0782625,bus,17
광진구의회,37.53919695,127.0701166,bus,31
광진구의회,37.53833605,127.0700807,bus,31
건대입구역,37.54338045,127.072093,bus,31
건대입구역,37.54228033,127.0719007,bus,31
세종대학교,37.54986166,127.0755659,bus,17
세종대학교,37.54985505,127.076031,bus,17
군자역,37.5563636,127.0788605,bus,17
군자역,37.55521313,127.0786411,bus,17
지영슈퍼,37.55177449,127.0923105,bus,94
세븐일레븐구의중앙로점앞,37.54156336,127.0898705,bus,53
성안약국,37.5531415,127.0933919,bus,94
구의홈마트앞,37.54031918,127.0895646,bus,53
종로약국앞,37.55758796,127.0881059,bus,17
영화사입구,37.55408344,127.0941503,bus,94
구의역,37.53827585,127.0890926,bus,53
기원정사입구,37.55517376,127.0930356,bus,94
테크노마트.광진문화원,37.53702053,127.0961012,bus,53
해오름공원입구,37.55633026,127.0913642,bus,17
프라임아파트앞,37.53783797,127.0970324,bus,94
용마사거리,37.56275704,127.0812432,bus,17
우리들약국,37.55704379,127.090369,bus,17
현대3.5차아파트,37.54077907,127.1003519,bus,94
마을금고앞,37.55773117,127.089393,bus,17
광남고.삼성아파트,37.54234308,127.1017493,bus,94
자양종합복지관앞,37.53246499,127.0754295,bus,53
신성시장입구,37.5586702,127.088063,bus,17
대순진리회앞.구.새마을금고,37.56095484,127.0875677,bus,17
대원외고앞,37.56324484,127.0871413,bus,17
광나루현대아파트,37.54669365,127.1077533,bus,94
중곡4동파출소,37.56541945,127.0867703,bus,17
한강호텔입구,37.54827454,127.1093151,bus,94
워커힐팰리스,37.55001332,127.1096719,bus,94
워커힐호텔비스타워커힐,37.5542416,127.1102655,bus,94
아차산역사거리,37.55067193,127.0914351,bus,94
중곡119안전센터,37.56675676,127.0862442,bus,17
구의3동주민센터,37.53801046,127.0916151,bus,53
뚝섬유원지,37.53118236,127.0668304,bus,31
건국대입구,37.54111501,127.0675636,bus,31
광장자이아파트,37.54216725,127.0949109,bus,94
한전삼거리,37.54524056,127.0980186,bus,94
청구아파트앞,37.54326056,127.0961816,bus,94
용마사거리,37.56185329,127.0822105,bus,17
구의교통차고지,37.562731,127.086994,bus,17
강변역.테크노마트앞,37.53634111,127.0947896,bus,53
답십리역사거리,37.56518709,127.0550605,bus,96
청년회의소,37.56196532,127.0612838,bus,96
장한평역,37.56115106,127.067287,bus,96
신답초등학교.청계한신휴플러스,37.571753,127.044292,bus,87
신답초등학교.청계한신휴플러스,37.57175591,127.0447281,bus,87
동대문구청,37.57409545,127.0383272,bus,87
서울시동부병원,37.57392925,127.0309536,bus,72
신설동역.서울풍물시장,37.57442791,127.0257177,bus,72
중랑교,37.59169961,127.067704,bus,34
중랑교,37.59142462,127.0668384,bus,34
삼육서울병원,37.58969128,127.0606859,bus,34
삼육서울병원,37.58999245,127.0619514,bus,34
시조사삼거리,37.588707,127.056888,bus,34
떡전교사거리.동대문노인복지관,37.58644391,127.0520112,bus,34
청량리역환승센타,37.58040251,127.0454307,bus,87
청량리역환승센타,37.58025088,127.0460771,bus,87
동대문구청,37.57345887,127.0399889,bus,87
청량리역환승센터,37.58022407,127.0457513,bus,87
청량리역환승센터,37.58030292,127.0457231,bus,87
청량리역환승센터,37.58071526,127.0453667,bus,87
청량리미주아파트.동대문세무서,37.58278,127.048395,bus,87
청량리.청과물도매시장,37.57879112,127.0406051,bus,87
제기동역.서울약령시,37.57814334,127.0377802,bus,87
제기동역.서울약령시,37.57821362,127.0365751,bus,87
용두동사거리,37.57753206,127.0299882,bus,72
용두동사거리.한국의류시험연구원,37.57715265,127.0282789,bus,72
신설동역,37.57615004,127.0250446,bus,72
신설동역,37.5758268,127.0238433,bus,72
신설동역,37.57645359,127.0255837,bus,72
신설동역,37.57624536,127.025947,bus,72
용두동한국의류시험연구원,37.57751877,127.0291142,bus,72
용두로타리한국의류시험연구원,37.57725646,127.029482,bus,72
제기역약령시장,37.57829702,127.0366096,bus,87
제기역약령시장,37.57805354,127.0368349,bus,87
신설동역1번출구,37.57663033,127.0233167,bus,72
청량리미주상가앞,37.58189023,127.047678,bus,87
서울성심병원,37.58439239,127.0502443,bus,87
서울성심병원,37.58460747,127.0508977,bus,87
시조사,37.58684878,127.0522796,bus,34
휘경동입구,37.58766448,127.0552071,bus,34
삼육서울병원,37.58976565,127.0606123,bus,34
중랑교,37.59114436,127.0664307,bus,34
회기시장,37.59120263,127.0566389,bus,34
회기시장,37.59080604,127.056588,bus,34
경희중고,37.59292281,127.0577445,bus,34
경희중고,37.59334729,127.0583347,bus,34
외대앞,37.59562821,127.0596059,bus,34
외대앞,37.59548126,127.0597678,bus,34
이문동우체국,37.59938825,127.061746,bus,34
이문동교회,37.60025692,127.0621071,bus,34
의릉입구,37.603888,127.061963,bus,20
의릉입구,37.60348527,127.0621764,bus,20
한천로쌍용아파트앞,37.59819109,127.0676193,bus,34
한천로쌍용아파트앞,37.59866491,127.067887,bus,34
이문동삼익아파트,37.59454856,127.0682139,bus,34
이문동삼익아파트,37.59510354,127.0683628,bus,34
동일스위트리버아파트.휘봉고교,37.58779877,127.0677526,bus,34
휘경유수지견인차고지앞,37.58842,127.068577,bus,34
답십리래미안엘파인아파트,37.57567723,127.0673309,bus,96
서울준법지원센터.동성빌라,37.58555526,127.0673893,bus,34
서울준법지원센터.동성빌라,37.58567945,127.0676702,bus,34
휘경여중고휘경주공아파트앞,37.58260307,127.0682825,bus,34
휘경여중고휘경주공아파트,37.58215749,127.0685434,bus,34
장안동현대아파트앞,37.57974617,127.0685412,bus,96
전곡시장앞,37.57723707,127.0677951,bus,96
전곡시장앞,37.57732932,127.068142,bus,96
답십리촬영소.우성그린아파트,37.57419086,127.0668513,bus,96
촬영소사거리.우성그린아파트,37.57351066,127.0669165,bus,96
동답초등학교,37.57103976,127.065489,bus,96
동답한신.동아아파트,37.56962208,127.0641135,bus,96
동답한신.동아아파트,37.56888162,127.0639045,bus,96
동아.위더스빌아파트,37.56674029,127.0622143,bus,96
동아.위더스빌아파트,37.56615891,127.061465,bus,96
하나은행장안동지점,37.56340359,127.0585565,bus,96
장한평역4번출구,37.56131154,127.0671377,bus,96
청년회의소앞,37.56211026,127.0615307,bus,96
고미술상가,37.56360919,127.0572974,bus,96
답십리역.동부시장,37.56725625,127.0525194,bus,96
신답역앞,37.57084309,127.0470914,bus,87
동대문구청.용두역4번출구,37.57343501,127.0397136,bus,87
용두역,37.573977,127.037268,bus,87
용두동신동아아파트,37.57377044,127.0317925,bus,72
동대문우체국.서울풍물시장,37.57475976,127.0245653,bus,72
동대문구청.용두역3번출구,37.57553746,127.0383452,bus,87
동대문구청.용신동주민센터,37.57658077,127.0384169,bus,87
동대문구청.용신동주민센터,37.57530965,127.0379882,bus,87
경동시장앞,37.58199892,127.0387559,bus,87
제기동주민센터.서울약령시앞,37.58192515,127.0383947,bus,87
경동시장,37.57996441,127.0382839,bus,87
홍파초등학교,37.585531,127.038639,bus,87
홍파초등학교,37.58559711,127.0383377,bus,87
제기동한신아파트앞,37.587603,127.037888,bus,87
고려대역.고대앞삼거리,37.58943377,127.0366856,bus,98
고려대역.고대앞삼거리,37.58874785,127.0366498,bus,98
고려대학교앞,37.58813631,127.0346802,bus,98
우신향병원,37.5857223,127.0323863,bus,41
안암오거리,37.58246136,127.029897,bus,41
대광고등학교앞,37.57977772,127.0255621,bus,41
종암초등학교앞,37.58161861,127.0295992,bus,41
용두시장앞,37.57911159,127.0303342,bus,72
용두시장앞,37.579035,127.030161,bus,72
서울시동부병원,37.57589647,127.0304302,bus,72
서울시동부병원,37.57619016,127.0306953,bus,72
동아제약앞,37.57259937,127.0304425,bus,72
동아제약앞,37.57271644,127.0307312,bus,72
떡전교앞,37.58490404,127.0526949,bus,87
떡전교앞,37.58461845,127.0525769,bus,87
서울시립대입구,37.58300573,127.0540557,bus,87
서울시립대학교앞,37.58268049,127.0539399,bus,87
서울시동부교육지원청.해성국제컨벤션고교,37.57918535,127.056865,bus,87
전농로터리시장.동부교육지원청,37.578817,127.05676,bus,87
전농우체국앞,37.576367,127.057575,bus,96
전농우체국앞,37.57652016,127.0578903,bus,96
청솔우성아파트.답십리시장,37.57370928,127.057648,bus,96
미드카운티아파트.청솔우성아파트,37.57411129,127.057389,bus,96
답십리2동시온교회앞,37.57059613,127.0573999,bus,96
답십리1동희망샘교회앞,37.57052419,127.0571055,bus,96
답십리초등학교.현대시장,37.56845386,127.0572013,bus,96
답십리초등학교앞,37.56862657,127.0569309,bus,96
답십리역사거리,37.56550601,127.0552011,bus,96
황물로사거리,37.56654189,127.055992,bus,96
답십리1동주민센터.래미안위브,37.57236701,127.0510037,bus,87
답십리1동주민센터.래미안위브,37.57209939,127.0511403,bus,87
동대문중학교,37.57501295,127.0537544,bus,87
동대문중학교,37.5741763,127.0532772,bus,87
전농래미안크레시티아파트,37.57628025,127.0555921,bus,87
대한노인회동대문구지회,37.57621118,127.0559031,bus,87
전농사거리,37.57781477,127.0590376,bus,96
전농사거리,37.57756336,127.0592406,bus,96
배봉초등학교.전농우성아파트,37.57869532,127.0672948,bus,96
배봉초등학교.전농우성아파트,37.57844024,127.0674157,bus,96
장안2동주민센터,37.57884038,127.070404,bus,96
장안2동주민센터,37.57869598,127.0704638,bus,96
장안교앞,37.5796534,127.0739714,bus,96
장안교.은석초등학교,37.57961916,127.0746902,bus,96
청량리역6번출구,37.578083,127.043803,bus,87
청량리역6번출구,37.5779453,127.0437858,bus,87
롯데캐슬노블레스,37.57555526,127.0484717,bus,87
전농시장앞,37.57608472,127.0471184,bus,87
래미안크레시티.답십리도서관,37.57456175,127.050244,bus,87
동대문구답십리도서관앞,37.5738813,127.0510268,bus,87
답십리래미안위브아파트,37.57276898,127.0548282,bus,96
답십리래미안미드카운티,37.57298,127.055558,bus,96
답십리종합상가,37.57273205,127.0567076,bus,96
답십리2동두산아파트,37.5727537,127.0585128,bus,96
한양아파트.청솔우성아파트후문,37.57295362,127.058758,bus,96
답십리2동한양아파트앞,37.57267023,127.0614069,bus,96
답십리2동한양아파트앞,37.57295735,127.0611223,bus,96
동답한신.대림아파트동대문체육관,37.572663,127.063768,bus,96
촬영소사거리.동답초등학교,37.572642,127.065212,bus,96
촬영소사거리.세양청마루아파트앞,37.57288976,127.0653559,bus,96
동대문구.성동구선거관리위원회,37.57248721,127.0682025,bus,96
동대문구.성동구선거관리위원회,37.57277346,127.0678745,bus,96
장안사거리,37.57258453,127.0703387,bus,96
국민은행장안동지점,37.57237591,127.0734973,bus,96
국민은행장안동지점,37.57205336,127.0742101,bus,96
장안동근린공원,37.57732381,127.0719536,bus,96
장안동근린공원,37.57831415,127.072388,bus,96
동대문더퍼스트데시앙아파트,37.57499211,127.0717763,bus,96
NH농협장안평지점,37.57515296,127.0721655,bus,96
코리아병원,37.57320691,127.0716599,bus,96
새서울병원,37.57310127,127.0720051,bus,96
장안동삼성쉐르빌아파트,37.57139964,127.0713569,bus,96
장안동삼성쉐르빌아파트,37.571238,127.070843,bus,96
힐스테이트장안센트럴,37.569605,127.070183,bus,96
현대벤처빌.현대썬앤빌,37.56892086,127.0694007,bus,96
현대벤처빌,37.56791449,127.0690489,bus,96
우리은행장안지점앞,37.566393,127.067727,bus,96
우리은행장안지점앞,37.56559866,127.0676385,bus,96
북한연구소앞,37.56346482,127.0661435,bus,96
장한평역2번출구,37.56229654,127.0649278,bus,96
장한평역3번출구,37.56243706,127.0654362,bus,96
신이문역,37.60261657,127.0679016,bus,9
이문동현대아파트앞,37.60101794,127.0706774,bus,9
이문동현대아파트,37.60085902,127.0709847,bus,9
휘경2동주민센터,37.59073615,127.0680485,bus,34
휘경2동주민센터,37.59050489,127.0680859,bus,34
동부아동상담소.동국대부속중고,37.57683354,127.0763834,bus,96
장안삼성래미안2차아파트,37.57468158,127.0766223,bus,96
장안삼성래미안2차아파트.성복교회,37.57284682,127.0768145,bus,96
장안현대홈타운아파트앞,37.56975917,127.0733886,bus,96
구민회관앞,37.56638627,127.0739413,bus,96
파라브아파트,37.56358281,127.072374,bus,17
장안현대홈타운상가,37.5713084,127.0743786,bus,96
장안현대홈타운앞,37.56928936,127.0756173,bus,96
장안치안센터,37.56794588,127.0724996,bus,96
장안치안센터,37.56822212,127.0727018,bus,96
장평중학교,37.5657454,127.0709395,bus,96
회기역종점,37.58990037,127.0588619,bus,34
경희대입구,37.59127171,127.0530132,bus,34
경희대입구,37.59158311,127.0527127,bus,34
서울바이오허브.농촌경제연구원,37.59138784,127.0501401,bus,34
서울바이오허브.농촌경제연구원,37.59160895,127.0492769,bus,34
한국과학기술원.홍릉초등학교,37.591769,127.045747,bus,34
한국과학기술원.홍릉초등학교,37.59154457,127.0469641,bus,34
국방연구원,37.59140933,127.0411809,bus,98
국방연구원,37.59110399,127.0400584,bus,98
세종대왕기념관,37.58985337,127.0423802,bus,87
세종대왕기념관,37.59046154,127.0425674,bus,87
영휘원사거리.(구)홍릉사거리,37.58600093,127.0431752,bus,87
영휘원사거리.(구)홍릉사거리,37.58601434,127.0434662,bus,87
동대문경찰서,37.58381733,127.0438782,bus,87
동대문경찰서,37.58355857,127.0442607,bus,87
현대코아,37.58181203,127.0448734,bus,87
현대코아,37.58148592,127.0446558,bus,87
동대문중앙새마을금고,37.58311793,127.0412132,bus,87
동대문중앙새마을금고,37.58298693,127.0422207,bus,87
제기동주민센터앞,37.58297689,127.0378676,bus,87
제기동한신아파트,37.58663818,127.037361,bus,87
제기시장,37.58638597,127.03522,bus,87
제기시장,37.5866249,127.034671,bus,87
외대역앞,37.59600959,127.0609471,bus,34
외대역앞,37.59606615,127.0613605,bus,34
이경시장,37.59526404,127.0649927,bus,34
청랑리한신아파트.청량사입구,37.5867421,127.047414,bus,87
전동초등학교.전농동SK아파트,37.57775082,127.0609446,bus,96
벽산아파트,37.58275628,127.0305142,bus,41
제기동천주교회,37.58285681,127.033571,bus,87
이문동쌍용아파트,37.59887798,127.0688554,bus,9
이문동쌍용아파트,37.5988317,127.0691211,bus,9
이문1동주민센터,37.59780678,127.0652559,bus,34
전동초등학교.전농동SK아파트,37.57811986,127.0614944,bus,96
한국산업인력공단서울지역본부,37.58374453,127.0729707,bus,34
서울반도체고교.휘경주공아파트,37.58416573,127.0692519,bus,34
e편한세상청계센트럴포레아파트,37.57081591,127.0302942,bus,72
한천로입구,37.59911429,127.067352,bus,34
래미안장안1차아파트앞,37.56683171,127.0720205,bus,96
장평중학교앞,37.56495819,127.0702528,bus,96
청량리미주상가앞,37.58195798,127.0472557,bus,87
동대문구청.용두역,37.572834,127.04015,bus,87
종로사약국,37.59452137,127.0653058,bus,34
회기동현대아파트,37.58911092,127.0544609,bus,34
우산빌딩앞,37.58888235,127.0546771,bus,34
배봉산입구,37.58034162,127.068204,bus,96
면곡시장,37.57164464,127.0810661,bus,17
동부아파트,37.5866889,127.0452316,bus,87
자동차부품상가,37.56459467,127.0577757,bus,96
청랑리한신아파트.청량사입구,37.5865145,127.0476686,bus,87
장안동삼성쉐르빌아파트앞,37.57230849,127.070211,bus,96
동대문노인종합복지관,37.58594609,127.0497131,bus,87
쌍용아파트,37.60135011,127.0683889,bus,9
쌍용아파트,37.60146745,127.0685177,bus,9
삼육서울병원,37.59028334,127.0623613,bus,34
동일스위트리버앞.휘봉고교,37.58718067,127.0676591,bus,34
청량리수산시장,37.57864345,127.0408714,bus,87
휘봉초등학교,37.58770638,127.0696854,bus,34
휘경미소지움아파트,37.59092823,127.0645643,bus,34
서울반도체고교.휘경주공아파트,37.58446955,127.0697135,bus,34
용두동신동아아파트,37.57404505,127.0325998,bus,72
청량리수산시장,37.57895216,127.0418951,bus,87
답십리역,37.56676846,127.0531915,bus,96
가든아파트.수사연구소,37.58454922,127.0720742,bus,34
회기역,37.59012302,127.0578477,bus,34
답십리역1번출구,37.56849786,127.0506964,bus,87
동일하이빌.현대베스트빌아파트,37.58247318,127.0739978,bus,83
동안교회,37.59386782,127.0577431,bus,34
경희대입구,37.59156575,127.0527811,bus,34
청계한신휴플러스,37.57180723,127.0450335,bus,87
시조사삼거리,37.588481,127.053504,bus,34
경희중고,37.59435924,127.0564273,bus,34
경희대의료원.경희여중고,37.59406201,127.0522472,bus,34
한신휴플러스정문,37.57273526,127.0450796,bus,87
경희맨션,37.59561508,127.0570001,bus,34
동아아파트,37.5742471,127.0455832,bus,87
미니슈퍼,37.59667122,127.0568673,bus,34
전농119안전센터,37.57618354,127.0456082,bus,87
외대.경희대후문,37.59831287,127.0571505,bus,34
전농1동치안센터,37.57642224,127.0480957,bus,87
휘경여중고.휘경주공아파트,37.58245484,127.0685629,bus,34
신성미소지움아파트,37.57893183,127.0501308,bus,87
삼성래미안,37.59991182,127.0573676,bus,34
청량리소화물취급소,37.58050909,127.0514146,bus,87
영광빌딩,37.58184312,127.0525059,bus,87
새마을금고앞,37.59778874,127.0601637,bus,34
시립대입구,37.58385212,127.0534664,bus,87
외대앞역,37.59533487,127.0628249,bus,34
새마을금고앞,37.59786079,127.0602362,bus,34
회기역종점,37.58985177,127.0587396,bus,34
외대.경희대후문,37.59830395,127.0569625,bus,34
신설동역1번출구,37.57601247,127.023609,bus,72
33번지앞,37.59888267,127.057755,bus,34
미니슈퍼,37.59674067,127.0567462,bus,34
딩동슈퍼,37.59565568,127.0569107,bus,34
경희중고,37.59465124,127.0563426,bus,34
동안교회,37.59286031,127.0573015,bus,34
동대부고.은석초교앞,37.57925946,127.07367,bus,96
서울시립대,37.58311516,127.0531816,bus,87
영광빌딩,37.58198112,127.0521992,bus,87
청량리소화물취급소,37.58059031,127.051135,bus,87
신성미소지움아파트,37.57865813,127.0495758,bus,87
전농1동치안센터,37.57627826,127.0476065,bus,87
동대문해병전우회,37.5763719,127.0455245,bus,87
태양하나어린이집.동아아파트,37.57406424,127.0454348,bus,87
한신휴플러스후문,37.57298963,127.0467316,bus,87
신답역,37.57114047,127.0492346,bus,87
삼희아파트1동,37.57015863,127.0505437,bus,87
답십리고미술상가2동,37.56899581,127.0514871,bus,87
답십리건축자재시장,37.56747388,127.0534864,bus,96
답십리쌍마사거리,37.56618994,127.0552016,bus,96
부속상가,37.5651431,127.0566147,bus,96
고려대역3번출구,37.59048339,127.0365261,bus,98
의료원입구사거리,37.59269938,127.0526585,bus,34
삼육서울병원,37.5902762,127.062222,bus,34
장안삼거리,37.57802912,127.0723517,bus,96
장안사거리삼성래미안,37.57320939,127.0720255,bus,96
장안사거리삼성래미안,37.57378629,127.0716865,bus,96
장한평역,37.56138477,127.0667269,bus,96
청량리역,37.58043552,127.0462731,bus,87
서울시립대입구,37.58285626,127.0538031,bus,87
전농로터리시장,37.57725264,127.0571016,bus,96
신답역,37.57054815,127.047784,bus,87
장안삼거리,37.57784732,127.0719972,bus,96
신설동로터리.서울풍물시장,37.57427559,127.0234166,bus,72
경동시장앞,37.58056802,127.0386578,bus,87
경동시장사거리,37.57722935,127.0381091,bus,87
힐스테이트장안센트럴,37.57058027,127.0704788,bus,96
힐스테이트장안센트럴,37.57034109,127.070739,bus,96
동답초교.대림아파트,37.57120722,127.0652299,bus,96
정화여자중.상업고등학교,37.5868028,127.041753,bus,87
정화여자중.상업고등학교,37.58661131,127.0418435,bus,87
동대문노인종합복지관,37.58631032,127.0492582,bus,87
망우역,37.59782836,127.0911386,bus,9
망우역,37.59760319,127.0904652,bus,9
상봉역.중랑우체국,37.59595909,127.0837436,bus,9
상봉역.중랑우체국,37.59572314,127.0833008,bus,9
중랑역.동부시장,37.5939711,127.076052,bus,9
중랑역.동부시장,37.59361529,127.0749382,bus,9
망우역.망우지구대,37.59884493,127.0953897,bus,62
망우역.망우지구대,37.598558,127.0948711,bus,62
우림시장.망우사거리,37.59957206,127.0986407,bus,62
우림시장.망우사거리,37.59936518,127.0982214,bus,62
금란교회,37.6005298,127.1040334,bus,62
금란교회,37.60036404,127.1033575,bus,62
동부제일병원.망우리공원,37.6004643,127.1089022,bus,62
동부제일병원.망우리공원,37.600478,127.107756,bus,62
극동늘푸른아파트,37.61470265,127.076404,bus,70
묵동자이.신도브래뉴아파트,37.61527027,127.0765886,bus,70
묵동삼거리.먹골역,37.6125567,127.0771199,bus,70
먹골역.묵동자이아파트,37.61383501,127.077086,bus,70
한국전력동대문중랑지사,37.60695744,127.0782567,bus,9
한국전력동대문중랑지사,37.60622956,127.0787486,bus,9
지하철7호선중화역,37.60264857,127.0791563,bus,9
지하철7호선중화역,37.60284415,127.0794498,bus,9
국민은행중화동지점,37.59884151,127.0798617,bus,9
중화동한신아파트,37.59907622,127.0801695,bus,9
상봉2동복합청사.도서관,37.59189107,127.0799783,bus,9
상봉2동복합청사.도서관,37.59203792,127.0802877,bus,9
면목2동주민센터,37.58938252,127.079859,bus,83
중목초등학교,37.590203,127.080221,bus,83
면목2동,37.58715492,127.0797305,bus,83
면목2동,37.58747924,127.0801196,bus,83
면목5동주민센터,37.58488449,127.0796318,bus,83
장안시장,37.58552167,127.0800231,bus,83
면목신우아파트,37.58027099,127.0794405,bus,83
면목신우아파트,37.58063297,127.0798123,bus,83
면목119안전센터,37.5735215,127.0799088,bus,96
경남아너스빌아파트앞,37.57474952,127.0801547,bus,96
늘푸른동아아파트,37.57249846,127.0803572,bus,17
중랑역.동부시장1,37.59392414,127.0755226,bus,9
중랑역.동부시장1,37.59394994,127.0767666,bus,9
한샘교회,37.59541737,127.0824937,bus,9
신내지하차도,37.59947349,127.0971022,bus,62
상봉역2번출구,37.59662384,127.0872459,bus,9
신내지하차도,37.5994814,127.0973547,bus,62
중랑구방정환교육지원센터,37.59736357,127.0886276,bus,9
망우역,37.59864327,127.0940703,bus,62
망우역,37.59869164,127.0955396,bus,62
망우지구대,37.599037,127.095842,bus,62
양원숲초등학교,37.60968708,127.1048434,bus,62
하나은행망우동지점,37.59962617,127.0985869,bus,62
양원숲초등학교,37.60996873,127.1047391,bus,62
금란교회앞,37.60060153,127.1037917,bus,62
금란교회앞,37.60017003,127.1026813,bus,62
능산사거리,37.60848004,127.1019453,bus,62
망우동고개,37.60068842,127.1073787,bus,62
서울우유앞,37.592108,127.072817,bus,34
서울우유앞,37.59144855,127.0731676,bus,34
중랑초등학교,37.58932,127.074318,bus,34
중랑초등학교,37.58951007,127.0742727,bus,34
동부시장남문입구,37.5904314,127.0776648,bus,9
동부시장남문입구,37.59077037,127.0782593,bus,9
88병원,37.59131195,127.080896,bus,83
상봉2동주민센터,37.59164995,127.0810883,bus,9
서울창업카페상봉점,37.592028,127.083885,bus,83
서울창업카페상봉점,37.59224,127.083713,bus,83
면목6거리,37.59287946,127.0878523,bus,83
면목6거리,37.59294023,127.0872031,bus,83
상봉신협,37.59336525,127.0899025,bus,83
상봉신협,37.59365316,127.0905684,bus,83
혜원사거리,37.59388,127.092532,bus,83
혜원사거리,37.59437063,127.0936742,bus,83
혜원여중고입구,37.594427,127.09505,bus,83
혜원여중고입구,37.59477232,127.0955544,bus,83
봉우재고개,37.595025,127.097837,bus,62
봉우재고개,37.59511206,127.0973049,bus,62
우림시장,37.595398,127.09954,bus,62
우림시장,37.59557112,127.0992893,bus,62
상봉역3번출구,37.59439714,127.0861766,bus,9
상봉역4번출구,37.59419727,127.0859397,bus,9
면목초등학교,37.59134367,127.0869725,bus,83
면목초등학교,37.59130244,127.086678,bus,83
지하철7호선면목역,37.5891322,127.0872406,bus,83
지하철7호선면목역,37.58916623,127.0875226,bus,83
면목본동주민센터.면목정보도서관,37.58691461,127.0882416,bus,83
면목본동주민센터.면목정보도서관,37.5865148,127.0880981,bus,83
면동초등학교,37.5842573,127.0884544,bus,83
면동초등학교,37.5848548,127.08836,bus,83
면목우체국.녹색병원,37.58205484,127.0887178,bus,83
면목우체국.녹색병원,37.58273384,127.0884574,bus,83
지하철7호선사가정역,37.57985996,127.0880663,bus,83
사가정역2번출구,37.58122425,127.0884338,bus,83
면목시장,37.57964703,127.0876507,bus,83
면남초등학교,37.57863428,127.0863248,bus,83
면남초등학교,37.5783,127.085932,bus,83
방약국앞,37.57577456,127.0858494,bus,83
방약국앞,37.575997,127.08574,bus,83
중곡초등학교,37.572917,127.084205,bus,17
중곡초등학교,37.57315089,127.0841788,bus,17
삼용사입구,37.59768317,127.1001746,bus,62
삼용사입구,37.59694407,127.1004182,bus,62
용마공원입구,37.59391993,127.0994371,bus,83
용마공원입구,37.594253,127.099292,bus,62
면일초등학교,37.59201745,127.0984014,bus,83
우리은행망우동지점,37.591217,127.097627,bus,83
서일대학교,37.58951,127.0967,bus,83
서일대학교,37.58919411,127.0968692,bus,83
용마문화복지센터,37.586485,127.09538,bus,83
용마문화복지센터,37.586712,127.095167,bus,83
중화중학교.면목고등학교,37.58399797,127.0940498,bus,83
"중화중학교,중랑구가족센터",37.58475479,127.0941651,bus,83
면중초등학교,37.58123119,127.0934632,bus,83
면중초등학교,37.58226935,127.0933286,bus,83
한양수자인사가정파크,37.58007025,127.0928893,bus,83
묵동공감대아파트,37.61384108,127.0781223,bus,70
면목동금호어울림아파트,37.57924676,127.0917166,bus,83
면목동금호어울림아파트,37.57783748,127.0907073,bus,83
면목동대원칸타빌아파트,37.57776122,127.0902827,bus,83
용마폭포공원,37.57569223,127.088742,bus,83
용마폭포공원,37.57592666,127.0885475,bus,83
용마산역,37.57338157,127.0866709,bus,17
용마산역,37.57350612,127.0863982,bus,17
용마산하늘채아파트,37.57102368,127.086307,bus,17
용마산하늘채아파트,37.57125817,127.0860197,bus,17
묵동구길,37.61551908,127.0790555,bus,70
묵동구길,37.61589231,127.0790669,bus,70
묵1동주민센터입구.먹골역,37.61186322,127.0779517,bus,70
묵1동주민센터입구.먹골역,37.61258959,127.0777996,bus,70
신성은하수아파트,37.5885779,127.0737057,bus,34
신성은하수아파트,37.58845406,127.0734455,bus,34
면목2동한신아파트,37.58733432,127.0740441,bus,34
면목2동한신아파트,37.586758,127.074238,bus,34
겸재교입구. 서울시집집마당,37.58560777,127.0758896,bus,83
겸재교입구. 서울시집집마당,37.58590719,127.0761005,bus,83
동서그랜드맨션,37.58611096,127.0779518,bus,83
동서그랜드맨션,37.58648655,127.078807,bus,83
하나은행면목지점,37.58681611,127.0811114,bus,83
하나은행면목지점,37.58702789,127.0810409,bus,83
면목복개천,37.587913,127.086043,bus,83
면목복개천,37.58805288,127.0856702,bus,83
면목역2번출구,37.58849555,127.0886341,bus,83
면목역2번출구,37.58867888,127.0885502,bus,83
농협앞,37.58918267,127.0919716,bus,83
농협앞,37.58944667,127.0919969,bus,83
혜원여중고후문,37.590197,127.09618,bus,83
혜원여중고후문,37.5904649,127.0963953,bus,83
면목마젤란아파트,37.58682434,127.0837401,bus,83
면목마젤란아파트,37.58670525,127.0839472,bus,83
녹색병원입구,37.58415445,127.0836907,bus,83
녹색병원입구,37.58490259,127.0833643,bus,83
면목두산아파트1차,37.58193312,127.0838864,bus,83
면목두산아파트1차,37.58183068,127.0834866,bus,83
면목두산아파트4.5단지,37.5784556,127.0811929,bus,83
면목두산아파트4.5단지,37.57854054,127.081026,bus,83
사가정센트럴아이파크아파트,37.5813735,127.0819886,bus,83
홈플러스면목동점,37.58113087,127.0817184,bus,83
면목두산아파트2차,37.58110794,127.0848478,bus,83
면목두산아파트2차,37.58099772,127.084643,bus,83
사가정역,37.58090769,127.0876317,bus,83
사가정역3번출구,37.58066242,127.0872974,bus,83
사가정시장,37.5806428,127.0894314,bus,83
사가정시장,37.58044017,127.089301,bus,83
용마산교차로,37.58063593,127.0925023,bus,83
중화2동주민센터,37.60163525,127.0767626,bus,9
중화2동주민센터,37.60141304,127.077011,bus,9
중화역3번출구,37.6017066,127.0787353,bus,9
중화역3번출구,37.60145047,127.0789975,bus,9
지하철7호선중화역2번출구,37.60169442,127.080683,bus,9
지하철7호선중화역2번출구,37.601522,127.080945,bus,9
중흥초등학교,37.60178942,127.0827319,bus,9
중흥초등학교,37.60168334,127.0830923,bus,9
이화연립경동제일교회앞,37.60235189,127.0849966,bus,9
이화연립경동제일교회앞,37.60229443,127.0853154,bus,9
쌍용아파트신내테크노타운앞,37.60328775,127.0879638,bus,9
쌍용아파트신내테크노타운앞,37.60311558,127.0880531,bus,9
엘지아파트앞,37.60410238,127.0898625,bus,62
엘지아파트앞,37.60394938,127.090002,bus,62
신현중학교,37.60531017,127.0917486,bus,62
신현중학교,37.60479174,127.0914212,bus,62
중랑구청,37.60664397,127.0941823,bus,62
중랑구청,37.60620561,127.0936349,bus,62
동성프라자앞,37.60777153,127.0971854,bus,62
동성프라자앞,37.60770719,127.0976237,bus,62
성원아파트경남아너스빌앞,37.60395684,127.0954657,bus,62
성원아파트경남아너스빌앞,37.60345008,127.0958887,bus,62
중랑구청사거리,37.60562052,127.0952115,bus,62
중랑구청사거리,37.60605737,127.0953791,bus,62
신내동성3차아파트,37.60764321,127.0952481,bus,62
신내동성1.2차아파트,37.60975261,127.0960572,bus,62
신내10단지아파트,37.60914701,127.095563,bus,62
신내9단지아파트,37.61056948,127.0959907,bus,62
신내8단지아파트.서울의료원,37.61311489,127.0961797,bus,62
신내9단지아파트.서울의료원,37.61262614,127.096622,bus,62
신내7단지아파트홈플러스,37.61525321,127.0938875,bus,62
신내7단지아파트홈플러스,37.61552359,127.0937064,bus,62
봉화초등학교,37.61376091,127.0917244,bus,70
봉화초등학교,37.6138773,127.0915286,bus,70
신내6단지아파트.옹기테마공원,37.61389708,127.0904185,bus,70
신내6단지,37.61620986,127.0917761,bus,70
신내6단지아파트.옹기테마공원,37.61398122,127.0900829,bus,70
신내우체국.5단지두산대림아파트,37.6165664,127.0900173,bus,70
신내우체국.5단지두산대림아파트,37.61663487,127.0897718,bus,70
구립도서관체육관,37.61560976,127.0870834,bus,70
구립도서관체육관,37.6157123,127.0871347,bus,70
신내4단지아파트,37.61659277,127.086081,bus,70
신내5단지아파트,37.61652713,127.0862463,bus,70
화랑대역6번출구,37.61964031,127.0858733,bus,70
화랑대역5번출구,37.61985182,127.086185,bus,70
봉화산역2번출구,37.61670431,127.0931755,bus,70
봉화산역3번출구,37.61645874,127.0929081,bus,70
중랑경찰서후문,37.61987663,127.1055544,bus,36
새우개마을,37.61824411,127.1033559,bus,36
신내능마을,37.61436191,127.1016593,bus,62
신내능마을,37.61455944,127.1014319,bus,62
신내교회.신내데시앙아파트,37.61054059,127.1013329,bus,62
신내교회.신내데시앙아파트,37.61053825,127.1010153,bus,62
신내초등학교,37.6061556,127.10075,bus,62
신내새한아파트앞,37.60583816,127.1010485,bus,62
능산지하차도,37.60094741,127.1006376,bus,62
능산지하차도,37.60108192,127.100349,bus,62
상봉터미널,37.59646615,127.0931425,bus,83
상봉터미널,37.59622669,127.0928591,bus,83
망우3동주민센터.혜원여중고후문,37.59216765,127.0935437,bus,83
망우3동주민센터.혜원여중고후문,37.59246525,127.0932383,bus,83
동원시장,37.59045815,127.0937069,bus,83
동원시장,37.59039979,127.0934407,bus,83
면목본동파출소,37.58867095,127.0941327,bus,83
면목본동파출소,37.58717592,127.0942916,bus,83
중화2동체육공원,37.60036051,127.073873,bus,9
중화빗물펌프장,37.59833435,127.0720151,bus,9
중화2동새마을금고,37.595615,127.072125,bus,9
중화2동새마을금고,37.59553214,127.0723481,bus,9
중랑교동부시장,37.59381705,127.0724587,bus,9
중랑교동부시장,37.59388448,127.0726966,bus,9
아남리치카운티아파트,37.5904056,127.0853818,bus,83
망우동고개,37.60128299,127.1083598,bus,62
망우금호어울림아파트,37.602022,127.1080533,bus,62
망우동금호어울림아파트,37.60236274,127.1080906,bus,62
경남아파트.서울특별시북부병원,37.60382609,127.1071131,bus,62
서울특별시북부병원,37.60409659,127.1071826,bus,62
양원역입구,37.60553989,127.1061947,bus,62
양원역입구,37.60563981,127.1063013,bus,62
양원리,37.60952784,127.1065902,bus,62
양원리,37.60963618,127.1065048,bus,62
동서울교회,37.61175222,127.1052682,bus,62
동서울교회,37.61158521,127.1052575,bus,62
중랑공영차고지,37.61364523,127.1020231,bus,62
면목아남아파트,37.5903178,127.0850893,bus,83
중랑소방서,37.61487459,127.0952203,bus,62
세방아파트입구,37.61510925,127.0846193,bus,70
원묵고등학교,37.61560103,127.0855859,bus,70
먹골파출소.신안아파트입구,37.61455901,127.0823393,bus,70
먹골파출소.신안아파트입구,37.61441336,127.0812405,bus,70
신안2차아파트,37.61479742,127.078895,bus,70
신안2차아파트입구,37.61441191,127.0800625,bus,70
중랑소방서,37.61468221,127.0952174,bus,62
송곡여고양원역,37.60572863,127.1058005,bus,62
송곡여고양원역,37.605473,127.1056,bus,62
엘림재가방문요양센터,37.60468533,127.103524,bus,62
엘림재가방문요양센터,37.604392,127.103255,bus,62
이화미디어고.중랑숲어린이도서관,37.6032313,127.1021142,bus,62
이화미디어고.중랑숲어린이도서관,37.60311939,127.1023247,bus,62
금란교회,37.60129236,127.1019921,bus,62
금란교회,37.60118,127.10215,bus,62
망우사거리,37.60053784,127.1001455,bus,62
망우사거리,37.60037512,127.0999213,bus,62
신내지하차도,37.59992018,127.0974108,bus,62
신내지하차도,37.59976155,127.0974548,bus,62
신내6단지아파트,37.61641039,127.0917056,bus,70
이수아파트앞시장입구,37.61827507,127.0830768,bus,70
이수아파트앞시장입구,37.61817604,127.0829521,bus,70
묵동교,37.618035,127.079282,bus,70
묵동교,37.6180005,127.0794582,bus,70
동양쇼핑,37.61544016,127.0783873,bus,70
우리은행,37.61576658,127.0767891,bus,70
목동교입구.로프트원오피스텔,37.61558452,127.0768501,bus,70
한국아파트,37.61493216,127.0732418,bus,70
동구햇살아파트,37.6134823,127.0740059,bus,70
묵동롯데시네마,37.61484754,127.075272,bus,70
묵동롯데시네마,37.61502984,127.0755072,bus,70
브라운캐슬,37.6135896,127.0753177,bus,70
브라운캐슬,37.61361918,127.0755737,bus,70
먹골역입구,37.61146399,127.0758009,bus,70
먹골역입구,37.61149095,127.0759057,bus,70
묵2동주민센터,37.60989469,127.0760355,bus,70
묵2동주민센터,37.60990953,127.0761957,bus,70
금보당금은방,37.60818849,127.0764233,bus,9
금보당금은방,37.60792632,127.0766496,bus,9
신묵초등학교입구,37.60673546,127.0767077,bus,9
신묵초등학교,37.60673991,127.0767983,bus,9
제일시장,37.60496964,127.076992,bus,9
제일프라자,37.60499627,127.077142,bus,9
신동신약국,37.60353674,127.0772499,bus,9
신동신약국,37.60346891,127.0774178,bus,9
중화역입구대원사약국,37.60125308,127.0777108,bus,9
중화역입구대원사입구,37.60190097,127.0777475,bus,9
태릉시장입구,37.59947863,127.0780328,bus,9
태릉프라자약국농협,37.59833569,127.0771464,bus,9
태릉시장입구굴다리,37.59667652,127.0757519,bus,9
우남푸르미아아파트,37.60724352,127.0992086,bus,62
우남푸르미아아파트,37.60698499,127.0992198,bus,62
신내초등학교,37.60519502,127.0977025,bus,62
신내초등학교,37.60537728,127.0979377,bus,62
경남아파트,37.6028373,127.096952,bus,62
대명프라자,37.60246338,127.0970064,bus,62
건영아파트,37.60234531,127.0959547,bus,62
상봉1동주민센터,37.60043785,127.087649,bus,9
상봉1동주민센터,37.60066513,127.0873673,bus,9
신내쌍용아파트,37.60153821,127.0874691,bus,9
신내쌍용아파트,37.60223451,127.087175,bus,9
면목두산아파트2.3단지,37.57981406,127.0826783,bus,83
망우역,37.59862979,127.092981,bus,62
중랑공영차고지.신내역,37.61353239,127.1027961,bus,62
서울특별시북부병원,37.605022,127.108843,bus,62
양원역,37.60634435,127.107418,bus,62
성은교회앞,37.59717217,127.0719816,bus,9
해모로아파트앞,37.60193037,127.1113412,bus,62
먹골역5번출구,37.60893655,127.0778547,bus,70
먹골역4번출구,37.60936435,127.0781825,bus,70
중화2동체육공원,37.60036268,127.073695,bus,9
태릉고등학교앞,37.61843759,127.085377,bus,70
태릉고등학교.원묵초등학교,37.61829,127.087245,bus,70
태릉고등학교.원묵초등학교,37.61803874,127.0873412,bus,70
서울의료원후문,37.61377266,127.0974334,bus,62
서울의료원후문,37.613665,127.098397,bus,62
신내데시앙아파트후문,37.61316281,127.0994458,bus,62
신내데시앙아파트후문,37.61307545,127.1002632,bus,62
중화중학교삼거리,37.58644917,127.0948851,bus,83
새우개마을입구,37.61424373,127.09977,bus,62
신내차량사업소입구,37.61267309,127.1018665,bus,62
용마산빌라,37.57131213,127.0841214,bus,17
신내역1번출구,37.61247922,127.1033382,bus,62
능말입구,37.61384666,127.1056704,bus,62
망우리역사문화공원,37.60154824,127.1152136,bus,62
망우리역사문화공원,37.60184609,127.1153104,bus,62
신내SKV1센터,37.61446129,127.1132712,bus,36
능말입구,37.61378031,127.1054798,bus,62
중랑경찰서후문,37.61968904,127.1048419,bus,36
당너머,37.61294848,127.1075521,bus,62
당너머,37.61279087,127.1079487,bus,62
신내데시앙포레아파트220동앞,37.61540376,127.1128016,bus,36
신내데시앙포레아파트220동앞,37.61598638,127.1127525,bus,36
신내데시앙포레아파트정문앞,37.61656428,127.110942,bus,36
새솔초등학교입구,37.6172677,127.109803,bus,36
새솔초등학교,37.61743629,127.1083861,bus,36
중랑경찰서정문.우디안101동앞,37.61777105,127.1056205,bus,36
중랑경찰서정문.우디안101동앞,37.61768865,127.1053546,bus,36
신내우디안아파트107동앞,37.6156282,127.1054535,bus,36
신내우디안아파트107동앞,37.615298,127.1058995,bus,36
신내10단지아파트,37.61038669,127.0952912,bus,62
중랑공영차고지삼거리,37.6129736,127.1046668,bus,62
우디안아파트114동앞,37.61886359,127.1074162,bus,36
우디안아파트114동앞,37.61908457,127.1071503,bus,36
늘푸른근린공원,37.58310843,127.0796406,bus,83
늘푸른근린공원,37.58304851,127.0799299,bus,83
브라운캐슬B동,37.61364714,127.0749989,bus,70
진로아파트앞.종점,37.58761306,127.1019876,bus,83
중화동종점,37.60006038,127.0825318,bus,9
진주빌라.바다약국,37.58827021,127.1000297,bus,83
정신교회,37.59979444,127.0813967,bus,9
마을금고,37.59967885,127.0804464,bus,9
공판장,37.58862902,127.0991229,bus,83
수협,37.59955342,127.0793874,bus,9
새마을금고,37.58916643,127.097656,bus,83
태릉시장,37.59977225,127.0782426,bus,9
서일대정문,37.58830503,127.0960783,bus,83
서울동부새마을금고본점,37.58779305,127.0944316,bus,83
서일대정문,37.58781395,127.0961201,bus,83
면목역,37.58831332,127.0869543,bus,83
중랑초교정문.면목2동치안센터,37.5896743,127.076024,bus,9
한신아파트상가,37.58842145,127.0765526,bus,83
IBK기업은행면목동지점,37.58765506,127.0850097,bus,83
한신아파트후문,37.58735639,127.0765028,bus,83
마을금고,37.59950498,127.0803975,bus,9
정신교회,37.59965553,127.0816027,bus,9
중화동종점,37.59993325,127.0826438,bus,9
지하철7호선면목역,37.588388,127.0883234,bus,83
면목지구대,37.58781584,127.0941044,bus,83
새마을금고,37.58909458,127.0973219,bus,83
공판장,37.58849032,127.0990423,bus,83
진주빌라.바다약국,37.588189,127.099993,bus,83
진로아파트앞.종점,37.58754774,127.1019847,bus,83
수협,37.59938308,127.0794314,bus,9
중랑공영차고지.신내역,37.613209,127.103628,bus,62
중랑공영차고지.종점,37.613322,127.104468,bus,62
사가정역3번출구,37.58073582,127.0870023,bus,83
망우역,37.59864738,127.0925152,bus,62
길음2동주민센터,37.60690619,127.0282093,bus,98
길음2동주민센터,37.60611073,127.0274688,bus,98
길음뉴타운,37.60370804,127.02428,bus,98
길음뉴타운,37.6031113,127.0234418,bus,98
미아리고개.미아리예술극장,37.5988113,127.0217091,bus,98
미아리고개.미아리예술극장,37.597921,127.0218209,bus,98
돈암사거리.성신여대입구,37.59374328,127.0181314,bus,41
돈암사거리.성신여대입구,37.59325096,127.0176838,bus,41
삼선교.한성대학교,37.58992275,127.0093609,bus,93
삼선교.한성대학교.조소앙활동터,37.58932592,127.0082314,bus,93
숭곡초교입구,37.60985768,127.0320882,bus,52
창문여고,37.61185059,127.03582,bus,52
동방고개,37.61370757,127.0382739,bus,52
장위동그린빌아파트,37.61785258,127.0431131,bus,52
북서울꿈의숲,37.62031711,127.0453451,bus,82
장월초등학교,37.62356049,127.0486035,bus,82
국민대앞,37.61067955,126.9940273,bus,10
국민대앞,37.61108949,126.9940766,bus,10
국민대학교앞,37.61080796,126.9946486,bus,10
청덕초등학교,37.60867048,126.9990826,bus,10
청덕초교,37.60863,127.00006,bus,10
북악중학교,37.607386,127.002908,bus,10
고려대사범대학부속고등학교,37.607888,127.002378,bus,10
봉국사,37.605854,127.007624,bus,10
봉국사,37.606138,127.007657,bus,10
정릉2동주민센터,37.604593,127.011258,bus,10
정릉2동주민센터,37.60498089,127.011199,bus,10
숭덕초교,37.60335836,127.0146827,bus,10
숭덕초교,37.60369802,127.0151143,bus,10
정릉길음시장,37.60221556,127.0193251,bus,10
정릉길음시장.길음뉴타운9단지,37.60256916,127.0195998,bus,10
길음역2번출구.돈암삼성아파트,37.60187443,127.0245753,bus,98
길음역,37.60204131,127.0237699,bus,98
돈암1동주민센터,37.60367154,127.0264232,bus,98
돈암1동주민센터,37.60451168,127.0265679,bus,98
종암사거리,37.603607,127.031172,bus,98
KT월곡지사,37.6024464,127.0343782,bus,98
KT월곡지사,37.60302926,127.0347002,bus,98
종암SK아파트,37.60204672,127.037614,bus,98
성북구보건소,37.60258906,127.0391629,bus,98
월곡역,37.60162873,127.0414527,bus,98
월곡역,37.60306999,127.0423481,bus,98
동덕여대앞,37.60300278,127.0428339,bus,98
한국과학기술연구원입구,37.60558826,127.0472776,bus,20
상월곡역,37.605489,127.046447,bus,20
월곡중학교,37.606895,127.049787,bus,20
월곡중학교,37.60696636,127.049236,bus,20
새석관시장,37.60863665,127.0531023,bus,20
새석관시장,37.60844725,127.0521052,bus,20
돌곶이역,37.61145131,127.0584865,bus,20
돌곶이역,37.61058612,127.0562085,bus,20
장위동동원베네스트.온누리병원,37.612043,127.058969,bus,20
석관동주민센터,37.6133957,127.0619142,bus,20
석관동주민센터,37.61344125,127.0614334,bus,20
석계역굴다리앞,37.61433148,127.0657966,bus,20
석계역,37.61510571,127.0671119,bus,20
성가복지병원,37.60588272,127.0311379,bus,98
성가복지병원,37.60592276,127.0315287,bus,98
종암사거리입구,37.60143263,127.0330444,bus,98
종암사거리입구,37.60110637,127.033684,bus,98
종암동주민센터,37.59941526,127.0341075,bus,98
종암동주민센터,37.59837375,127.0349567,bus,98
숭례초교,37.59480527,127.0356812,bus,98
숭례초등학교,37.59439692,127.0361702,bus,98
고대앞,37.58856369,127.0348108,bus,98
우신향병원,37.58513594,127.0316105,bus,41
안암오거리,37.58248635,127.0290649,bus,41
대광초교,37.57970665,127.0250277,bus,41
정릉북한산국립공원입구,37.61772092,126.9992949,bus,10
정릉산장아파트,37.616713,127.0033452,bus,10
정릉대우아파트,37.616708,127.00386,bus,10
정릉4동주민센터.경국사,37.6135244,127.006337,bus,10
정릉4동주민센터.경국사,37.6133622,127.0067135,bus,10
성북청수도서관.정릉4동성당,37.61156967,127.0084194,bus,10
성북청수도서관.정릉4동성당,37.61089558,127.0090747,bus,10
정릉시장입구,37.60846533,127.0098213,bus,10
정릉시장입구,37.60803278,127.0101519,bus,10
정릉우체국앞,37.6051645,127.0114121,bus,10
정릉우체국앞,37.60539257,127.0115259,bus,10
미아초교,37.61153187,127.022039,bus,52
미아초교,37.61088662,127.0224658,bus,52
길음동동부아파트,37.60728287,127.0235309,bus,98
길음동동부아파트,37.60802487,127.0234547,bus,52
삼선동주민센터,37.59061071,127.0143473,bus,41
삼선동주민센터,37.59069177,127.0147154,bus,41
성북구청.성북경찰서,37.58815138,127.0174307,bus,41
성북구청.성북경찰서,37.58860541,127.0172299,bus,41
보문역,37.58585142,127.0189209,bus,41
보문역,37.5848759,127.0197707,bus,41
보문동성당,37.58239632,127.0207962,bus,41
보문동성당,37.58239897,127.0211155,bus,41
보문동주민센터,37.5804515,127.0218635,bus,41
보문동주민센터,37.58004809,127.0223781,bus,41
월계2교.참누리아파트,37.62321836,127.0503746,bus,82
월계2교,37.623825,127.050133,bus,82
광운초교앞,37.61995296,127.052958,bus,20
광운초교,37.62028579,127.053113,bus,20
장위3동주민센터,37.61648862,127.0568878,bus,20
장위3동주민센터,37.616156,127.0575142,bus,20
장삼주유소,37.6141178,127.0592242,bus,20
장삼주유소,37.61397337,127.0597361,bus,20
장위사거리,37.61158926,127.0618334,bus,20
장위사거리,37.61192533,127.0618299,bus,20
석관중고등학교앞,37.60926115,127.0640252,bus,20
석관고등학교,37.60943547,127.0643618,bus,20
석관동코오롱아파트,37.60658528,127.0661262,bus,20
석관동코오롱아파트,37.60669897,127.0663652,bus,20
북서울꿈의숲,37.61924623,127.0451013,bus,82
북서울꿈의숲,37.61911312,127.0456591,bus,82
장곡초교앞,37.61765946,127.0477168,bus,20
장곡초교앞,37.61770654,127.0479422,bus,20
하나은행장위동지점,37.61621078,127.050021,bus,20
하나은행장위동지점,37.61643,127.050048,bus,20
장위동원천주유소,37.6146909,127.0525711,bus,20
장위동원천주유소,37.61463079,127.0529741,bus,20
장위2동주민센터,37.61209215,127.0555323,bus,20
돌곶이역,37.61020459,127.0575579,bus,20
돌곶이역,37.6117479,127.0562033,bus,20
석관시장,37.60868974,127.0590704,bus,20
석관시장,37.60900239,127.05906,bus,20
석관동새마을금고,37.60745897,127.0603974,bus,20
석관동새마을금고,37.60727176,127.0609376,bus,20
한국예술종합학교,37.60564716,127.0618293,bus,20
한국예술종합학교,37.60576191,127.0620209,bus,20
돈암힐스테이트.코오롱하늘채,37.59843701,127.0142965,bus,10
꿈의숲아이파크아파트,37.61801607,127.0513841,bus,20
꿈의숲아이파크아파트,37.61801396,127.0510443,bus,20
장곡초교사거리,37.617145,127.050007,bus,20
